ciudad,provincia,latitud,longitud
"Abanico","Morona-Santiago",-2.1166666666666667,-78.16666666666667
"Abanin","El Oro",-3.3333333333333335,-79.5
"Abdon Calderon","Manabí",-1.0333333333333334,-80.33333333333333
"Abdon Calderon","Sucumbios",0.09277777777777778,-76.89888888888889
"Abdon Calderon","Azuay",-3.2666666666666666,-79.26666666666667
"Acacia","Guayas",-2.216666666666667,-79.875
"Achiote","Los Ríos",-1.2166666666666668,-79.51666666666667
"Achiote","Los Ríos",-1.6666666666666665,-79.65
"Achote","Guayas",-1.9166666666666665,-79.63333333333334
"Achuentza","Morona-Santiago",-2.830833333333333,-77.76027777777777
"Achuntza","Zamora-Chinchipe",-3.6972222222222224,-78.55833333333334
"Achupallas","Chimborazo",-2.2666666666666666,-78.73333333333333
"Achupallas","Tungurahua",-1.1333333333333333,-78.46666666666667
"Achupallas","Tungurahua",-1.3,-78.56666666666666
"Africa","Esmeraldas",1.075,-79.28333333333333
"Africa","Manabí",-0.7333333333333333,-80.31666666666666
"Agoyan","Tungurahua",-1.3833333333333333,-78.31666666666666
"Agua Blanca","Manabí",-1.5333333333333332,-80.73333333333333
"Agua Caliente","Pichincha",-0.43333333333333335,-78.66666666666667
"Agua Fria","Manabí",-0.9,-80.13333333333334
"Agua Fria","Manabí",-1.3666666666666667,-80.4
"Aguacatal","Los Ríos",-1.3333333333333333,-79.65
"Aguacatal","Manabí",-1.6166666666666667,-80.43333333333334
"Aguada","Guayas",-2.9833333333333334,-80.18333333333334
"Aguadita","Guayas",-2.1333333333333333,-80.6
"Aguahedionda","Loja",-3.966666666666667,-79.23333333333333
"Aguapiedra","Guayas",-2.716666666666667,-80.08333333333333
"Aguarico","Sucumbios",0.05,-77.36666666666666
"Aguarico","Sucumbios",-0.2833333333333333,-75.86666666666666
"Aguarico Tres","Sucumbios",0.01888888888888889,-76.66250000000001
"Aguas Aires","Guayas",-2.183333333333333,-79.98333333333333
"Aguas Blancas","Azuay",-2.8,-78.73333333333333
"Aguas Blancas","Guayas",-1.7833333333333332,-79.91666666666667
"Aguas Blancas Chico","Sucumbios",0.13805555555555554,-76.99027777777778
"Aguas Verdes","Guayas",-2.3,-80.26666666666667
"Aguas Verdes","El Oro",-3.5,-80.28333333333333
"Aguel","Carchi",0.8833333333333333,-78.08333333333333
"Aguirre","Pichincha",0.11666666666666667,-78.75
"Ahuaca del Carmen","Loja",-4.3,-79.55
"Ahuano","Napo",-1.0666666666666667,-77.51666666666667
"Aichabug","Chimborazo",-1.7166666666666668,-78.73333333333333
"Ajilanga","Loja",-4.25,-79.61666666666666
"Ajoshuaico","Azuay",-3.0,-78.9
"Alamor","Loja",-4.033333333333333,-80.03333333333333
"Alangasi","Pichincha",-0.3,-78.41666666666667
"Alao","Chimborazo",-1.9,-78.48333333333333
"Alaquez","Cotopaxi",-0.8666666666666667,-78.6
"Alaspungo","Pichincha",0.0,-78.6
"Alausi","Chimborazo",-2.2,-78.83333333333333
"Alborada","Guayas",-1.9166666666666665,-79.85
"Albornoz","Tungurahua",-1.3,-78.55
"Alegria","Los Ríos",-1.8833333333333333,-79.58333333333333
"Alfaro","Pichincha",-0.23333333333333334,-78.51666666666667
"Alfredo Baquerizo Moreno","Guayas",-1.9166666666666665,-79.51666666666667
"Algarrobal","Guayas",-3.0166666666666666,-80.15
"Algarrobillo","Loja",-4.166666666666667,-80.05
"Algarrobos","Guayas",-2.3,-79.71666666666667
"Algodonal","Loja",-4.2,-79.78333333333333
"Algodonal","Loja",-4.183333333333334,-80.31666666666666
"Algodonal","Loja",-4.266666666666667,-80.03333333333333
"Alhajuela","Manabí",-1.0666666666666667,-80.28333333333333
"Allpacruz","Cañar",-2.7,-78.8
"Alluriquin","Pichincha",-0.31666666666666665,-78.98333333333333
"Aloag","Pichincha",-0.4666666666666667,-78.58333333333333
"Aloasi","Pichincha",-0.5166666666666667,-78.58333333333333
"Alobamba","Tungurahua",-1.3666666666666667,-78.63333333333334
"Aloburo","Imbabura",0.43333333333333335,-78.05
"Alpachaca","Azuay",-2.9833333333333334,-78.88333333333334
"Alshi","Morona-Santiago",-2.216666666666667,-78.25
"Altamar","Esmeraldas",0.8,-79.41666666666667
"Altar Urco","Cañar",-2.466666666666667,-79.03333333333333
"Alto Tambo","Esmeraldas",0.8666666666666667,-78.53333333333333
"Alubushco","Loja",-4.316666666666666,-79.86666666666666
"Alumbre","Loja",-3.3666666666666667,-79.43333333333334
"Alusaca","Loja",-3.9833333333333334,-79.7
"Alvarado","Azuay",-2.85,-78.76666666666667
"Alvarez","Guayas",-2.1333333333333333,-79.43333333333334
"Amaguana","Pichincha",-0.36666666666666664,-78.45
"Amalia","Guayas",-2.05,-79.9
"Amalia","Guayas",-1.9166666666666665,-80.0
"Amalia","Los Ríos",-1.5166666666666666,-79.43333333333334
"Amalia Moncada","Guayas",-1.7833333333333332,-79.83333333333333
"Amaluza","Azuay",-2.8333333333333335,-78.48333333333333
"Amaluza","Loja",-4.6,-79.41666666666667
"Amancayes","Loja",-3.8666666666666667,-79.8
"Amashara","Azuay",-3.2,-78.98333333333333
"Amazonas","Morona-Santiago",-3.3833333333333333,-78.73333333333333
"Amazonas","Pastaza",-1.6333333333333333,-77.98333333333333
"Ambabaqui","Tungurahua",-1.3,-78.53333333333333
"Ambatillo","Tungurahua",-1.2333333333333334,-78.65
"Ambato","Tungurahua",-1.2491666666666668,-78.61666666666666
"Ambuqui","Imbabura",0.43333333333333335,-78.01666666666667
"Amelia","Guayas",-2.05,-79.93333333333334
"Amelia","Guayas",-1.9833333333333334,-79.43333333333334
"America","Guayas",-1.8666666666666667,-79.71666666666667
"America","Manabí",-1.4333333333333333,-80.51666666666667
"America","Guayas",-1.8666666666666667,-80.03333333333333
"America","Guayas",-1.8666666666666667,-80.01666666666667
"Ana","Guayas",-2.066666666666667,-79.91666666666667
"Ana Maria","Los Ríos",-0.9833333333333333,-79.41666666666667
"Anangu","Sucumbios",-0.5333333333333333,-76.38333333333334
"Anasque","Guayas",-1.55,-79.98333333333333
"Ancayacu","Orellana",-0.7,-76.0
"Anchamasa","Pichincha",-0.36666666666666664,-78.51666666666667
"Anchayacu","Esmeraldas",0.95,-79.06666666666666
"Ancon","Esmeraldas",1.445,-78.86083333333333
"Ancon","Guayas",-2.3333333333333335,-80.86666666666666
"Anconcito","Guayas",-2.3333333333333335,-80.88333333333334
"Andarriales","Manabí",-1.0,-80.1
"Andignato","Tungurahua",-1.35,-78.61666666666666
"Andoas","Pastaza",-2.5666666666666664,-76.63333333333334
"Andrade Marin","Imbabura",0.3333333333333333,-78.21666666666667
"Angamarca","Cotopaxi",-1.1166666666666667,-78.93333333333334
"Angamarcalle","Cotopaxi",-1.0,-78.61666666666666
"Angapamba","Azuay",-2.8833333333333333,-78.86666666666666
"Angas","Cañar",-2.4,-78.98333333333333
"Angas","Azuay",-2.9333333333333336,-79.35
"Angashco","Loja",-4.466666666666667,-79.86666666666666
"Angasmayo","Carchi",0.8333333333333334,-77.7
"Angela Maria","Guayas",-1.3833333333333333,-79.93333333333334
"Angelica","Guayas",-2.1666666666666665,-79.65
"Angelica","Guayas",-1.8833333333333333,-79.78333333333333
"Angelina","Guayas",-1.9166666666666665,-79.61666666666666
"Angelita","Guayas",-2.183333333333333,-79.66666666666667
"Angelita","Guayas",-2.1333333333333333,-79.63333333333334
"Angochagua","Imbabura",0.25,-78.08333333333333
"Angostura","Sucumbios",0.4,-76.33333333333333
"Anguasha","Morona-Santiago",-2.0166666666666666,-77.95
"Animas","Los Ríos",-1.5333333333333332,-79.7
"Ankuash","Morona-Santiago",-2.711388888888889,-77.57166666666666
"Anona","Manabí",-1.2833333333333332,-80.46666666666667
"Antisana","Azuay",-2.95,-79.01666666666667
"Antonio Jose Holguin","Cotopaxi",-1.1166666666666667,-78.58333333333333
"Antonio Sotomayor","Los Ríos",-1.65,-79.8
"Apagua","Cotopaxi",-0.9666666666666667,-78.93333333333334
"Apatug","Tungurahua",-1.3166666666666667,-78.7
"Apuela","Imbabura",0.35,-78.5
"Arajuno","Pastaza",-1.2333333333333334,-77.66666666666667
"Arapicos","Morona-Santiago",-1.85,-77.95
"Arcadia","Guayas",-1.5333333333333332,-80.01666666666667
"Archidona","Napo",-0.9166666666666666,-77.8
"Archiras","Loja",-4.1,-79.26666666666667
"Arcos","Loja",-3.55,-79.48333333333333
"Arenal","Cañar",-2.3666666666666667,-79.03333333333333
"Arenillas","El Oro",-3.55,-80.06666666666666
"Arias","Los Ríos",-1.3333333333333333,-79.8
"Ario","Guayas",-2.2666666666666666,-79.86666666666666
"Arizaga","Azuay",-2.9166666666666665,-78.78333333333333
"Armenia","Orellana",-0.5333333333333333,-77.08333333333333
"Aromo","Manabí",-1.05,-80.9
"Arquillo","Azuay",-2.7666666666666666,-79.45
"Arrastradero","Manabí",0.16666666666666666,-80.06666666666666
"Arrayan","Cañar",-2.4833333333333334,-79.11666666666666
"Arrayan","Azuay",-3.0833333333333335,-79.05
"Arrayan","Carchi",0.7666666666666667,-77.78333333333333
"Arrayan Dormido","Cañar",-2.4333333333333336,-79.01666666666667
"Arrayancucho","Pichincha",0.16666666666666666,-78.03333333333333
"Arres","Cañar",-2.4833333333333334,-78.95
"Arrozal","Cañar",-2.55,-79.33333333333333
"Arrozal","Orellana",-0.7833333333333333,-75.28333333333333
"Artilleria","Guayas",-1.9333333333333333,-79.71666666666667
"Arvida","Guayas",-1.7833333333333332,-79.78333333333333
"Asavo","Morona-Santiago",-3.321944444444444,-78.47888888888889
"Ascazubi","Pichincha",-0.08333333333333333,-78.28333333333333
"Ascazubi Alto","Pichincha",-0.08333333333333333,-78.28333333333333
"Ascension","Guayas",-1.9166666666666665,-79.75
"Asuncion","Azuay",-3.2,-79.25
"Asuncion","Morona-Santiago",-2.4833333333333334,-78.16666666666667
"Asuncion","Bolívar",-1.65,-79.03333333333333
"Atacames","Esmeraldas",0.8666666666666667,-79.85
"Atacmes","Esmeraldas",0.8772222222222222,-79.87972222222221
"Atahualpa","Esmeraldas",0.8666666666666667,-78.98333333333333
"Atahualpa","Tungurahua",-1.2166666666666668,-78.61666666666666
"Atahualpa","Guayas",-2.3166666666666664,-80.78333333333333
"Atahualpa","Pichincha",0.13333333333333333,-78.38333333333334
"Atahualpa","Manabí",-0.03333333333333333,-79.96666666666667
"Atar","Cañar",-2.6833333333333336,-78.88333333333334
"Atilio","Chimborazo",-2.1666666666666665,-78.56666666666666
"Ato de la Virgen","Cañar",-2.533333333333333,-78.86666666666666
"Atocha","Tungurahua",-1.2166666666666668,-78.6
"Atravesado","Guayas",-1.9,-80.75
"Atravesao","Guayas",-2.283333333333333,-80.7
"Atuhuaycu","Cañar",-2.55,-78.91666666666667
"Atuntaqui","Imbabura",0.3333333333333333,-78.21666666666667
"Aucayacu","Pastaza",-1.5833333333333335,-75.61666666666666
"Augusto N. Martinez","Tungurahua",-1.2166666666666668,-78.61666666666666
"Aurora","Guayas",-1.85,-79.8
"Aurora","Guayas",-1.9833333333333334,-79.5
"Aurora","Guayas",-2.066666666666667,-79.9
"Avanin Chico","Azuay",-3.183333333333333,-79.2
"Avila","Orellana",-0.6333333333333333,-77.41666666666667
"Avila","Manabí",-0.75,-80.36666666666666
"Ayacucho","Manabí",-1.15,-80.28333333333333
"Ayampe","Manabí",-1.6666666666666665,-80.81666666666666
"Ayamu","Pastaza",-1.65,-76.06666666666666
"Ayancay","Cañar",-2.8,-78.86666666666666
"Ayangue","Guayas",-1.9833333333333334,-80.73333333333333
"Ayapamba","Cañar",-2.7,-78.73333333333333
"Ayapamba","Azuay",-2.95,-79.01666666666667
"Ayapamba","El Oro",-3.6,-79.66666666666667
"Ayasa","Los Ríos",-0.75,-79.46666666666667
"Ayora","Pichincha",0.06666666666666667,-78.13333333333334
"Ayuy","Morona-Santiago",-2.0833333333333335,-77.6
"Azamana","Chimborazo",-2.15,-78.55
"Azogues","Cañar",-2.7333333333333334,-78.83333333333333
"Azucar","Guayas",-2.25,-80.58333333333333
"Azucena","Guayas",-1.85,-79.81666666666666
"Baba","Los Ríos",-1.7833333333333332,-79.66666666666667
"Babahoyo","Los Ríos",-1.8166666666666667,-79.51666666666667
"Bachillero","Manabí",-0.7833333333333333,-80.21666666666667
"Bachirin","Cañar",-2.533333333333333,-79.25
"Bacundo","Morona-Santiago",-2.533333333333333,-77.36666666666666
"Badeal","Loja",-4.383333333333334,-79.98333333333333
"Baejon","Azuay",-3.4833333333333334,-79.1
"Baeza","Napo",-0.45,-77.88333333333334
"Bagatela","Guayas",-2.0166666666666666,-79.95
"Bagpancel","Azuay",-2.966666666666667,-78.83333333333333
"Baguanche","Azuay",-2.9,-78.91666666666667
"Bahia de Caraquez","Manabí",-0.6,-80.41666666666667
"Bajada","Guayas",-2.75,-80.2
"Bajada","Guayas",-2.35,-80.25
"Bajada de Chanduy","Guayas",-2.3,-80.28333333333333
"Bajada de Colonche","Guayas",-2.0166666666666666,-80.6
"Bajana","El Oro",-3.65,-80.01666666666667
"Bajen","Guayas",-2.3833333333333333,-80.08333333333333
"Bajito","Esmeraldas",1.299722222222222,-78.96611111111112
"Bajo","Esmeraldas",1.2833333333333332,-78.96666666666667
"Bajo Alto","Guayas",-3.1166666666666667,-79.9
"Bajo de Afuera","Manabí",-1.1166666666666667,-80.65
"Bajo Grande","Manabí",-1.0833333333333333,-80.68333333333334
"Balao","Guayas",-2.9166666666666665,-79.81666666666666
"Balao Chico","Guayas",-2.7333333333333334,-79.75
"Balaura","Pastaza",-1.85,-76.43333333333334
"Ballenita","Guayas",-2.202777777777778,-80.86944444444444
"Balsa","Guayas",-1.3166666666666667,-80.0
"Balsa Real","Loja",-4.233333333333333,-80.23333333333333
"Balsalito","El Oro",-3.5833333333333335,-80.2
"Balsay","Azuay",-2.9,-79.05
"Balseria","Los Ríos",-1.2333333333333334,-79.3
"Balsillar","Guayas",-2.9166666666666665,-79.86666666666666
"Balvaneda","Chimborazo",-1.7166666666666668,-78.76666666666667
"Balzapamba","Bolívar",-1.7666666666666666,-79.18333333333334
"Balzar","Guayas",-1.3666666666666667,-79.9
"Balzar","Manabí",-0.5,-80.08333333333333
"Balzas","El Oro",-3.783333333333333,-79.81666666666666
"Bamba","Esmeraldas",0.55,-79.65
"Bambil Callao","Guayas",-1.9666666666666668,-80.66666666666667
"Bambil Deshecho","Guayas",-1.9833333333333334,-80.66666666666667
"Banderas","Morona-Santiago",-3.441388888888889,-78.235
"Banderas","Morona-Santiago",-3.386388888888889,-78.23722222222223
"Bando","Loja",-3.95,-79.66666666666667
"Banepo","Los Ríos",-1.5666666666666667,-79.66666666666667
"Banipe","Guayas",-1.8666666666666667,-79.98333333333333
"Banos","Tungurahua",-1.4,-78.41666666666667
"Banos","Azuay",-2.9,-79.06666666666666
"Banos","Guayas",-2.216666666666667,-80.7
"Banos de Yunga","Azuay",-2.9333333333333336,-79.5
"Baños de Agua Santa","Tungurahua",-1.396388888888889,-78.42472222222223
"Baqueria","Chimborazo",-2.0833333333333335,-78.58333333333333
"Baquerizo Moreno","Guayas",-1.9,-79.55
"Baquerizo Moreno","Tungurahua",-1.2333333333333334,-78.5
"Barabon","Azuay",-2.9166666666666665,-79.08333333333333
"Baratillo","Imbabura",0.36666666666666664,-78.7
"Barbascal","Guayas",-2.0166666666666666,-80.61666666666666
"Barbascal","Zamora-Chinchipe",-3.6133333333333333,-78.92222222222223
"Barbasco","Guayas",-1.7,-79.98333333333333
"Barbones","El Oro",-3.183333333333333,-79.91666666666667
"Barcelona","Guayas",-1.95,-80.7
"Barraganetal","Guayas",-2.183333333333333,-79.3
"Barranco","Guayas",-2.066666666666667,-79.81666666666666
"Barranco Colorado","El Oro",-3.4333333333333336,-79.9
"Barreiro","Los Ríos",-1.7833333333333332,-79.51666666666667
"Barrio Bellavista","Sucumbios",0.23416666666666666,-76.84444444444443
"Barrio de Arriba","Cañar",-2.7666666666666666,-78.91666666666667
"Barrio Nueve de Octubre","Sucumbios",0.23472222222222222,-76.84305555555555
"Barro","Los Ríos",-0.9833333333333333,-79.46666666666667
"Barro Colorado","Esmeraldas",0.9666666666666667,-78.88333333333334
"Bartasqui","Azuay",-3.5,-79.16666666666667
"Bastidas","Pichincha",-0.23333333333333334,-78.76666666666667
"Bastilla","Guayas",-1.7833333333333332,-79.81666666666666
"Batan","Guayas",-1.1666666666666667,-79.93333333333334
"Batan de Arriba","Guayas",-2.1,-79.9
"Bayan","Azuay",-3.3666666666666667,-79.08333333333333
"Bayanal","Azuay",-3.4833333333333334,-79.06666666666666
"Bayas","Cañar",-2.6833333333333336,-78.8
"Bayo Cruz","Cañar",-2.466666666666667,-78.98333333333333
"Beatriz","Guayas",-1.7833333333333332,-79.83333333333333
"Bebo","Guayas",-1.7166666666666668,-79.81666666666666
"Beche","Manabí",0.18333333333333332,-79.91666666666667
"Bejucal","Loja",-4.233333333333333,-80.3
"Bejucal","Loja",-4.3,-80.36666666666666
"Bejucal","El Oro",-3.6,-80.15
"Beldaca","Los Ríos",-1.5166666666666666,-79.7
"Beldaca","Guayas",-1.9666666666666668,-79.9
"Beldaco","Guayas",-1.9666666666666668,-79.51666666666667
"Belen","Guayas",-2.15,-80.15
"Belen","Loja",-3.8833333333333333,-79.56666666666666
"Belgica","Guayas",-1.85,-79.83333333333333
"Belgica","Guayas",-2.3,-79.7
"Belisario Quevedo","Cotopaxi",-0.9666666666666667,-78.56666666666666
"Bella Esperanza","Guayas",-1.85,-79.95
"Bella Juanita","El Oro",-3.3166666666666664,-79.88333333333334
"Bella Maria","El Oro",-3.5166666666666666,-79.91666666666667
"Bella Union","Guayas",-1.8833333333333333,-79.73333333333333
"Bella Vista","Guayas",-1.9166666666666665,-80.0
"Bella Vista","Los Ríos",-1.7333333333333334,-79.45
"Bella Vista","Guayas",-2.0166666666666666,-80.6
"Bellavista","Guayas",-2.1666666666666665,-80.33333333333333
"Bellavista","Loja",-4.566666666666666,-79.46666666666667
"Bellavista","Esmeraldas",1.1777777777777778,-78.94611111111111
"Bellavista","Guayas",-2.033333333333333,-79.83333333333333
"Bellavista","Azuay",-3.15,-79.15
"Bellavista","Guayas",-2.6166666666666667,-79.9
"Bellavista","Guayas",-1.9833333333333334,-79.4
"Bellavista","Sucumbios",0.15916666666666665,-76.81972222222223
"Bellavista","Galápagos",-0.6833333333333333,-90.3
"Bellavista","Manabí",-1.3166666666666667,-80.28333333333333
"Bellavista","Chimborazo",-1.7833333333333332,-78.6
"Bellavista","El Oro",-3.5,-79.96666666666667
"Bellavista","Orellana",-0.75,-75.58333333333333
"Bellavista","Tungurahua",-1.3,-78.66666666666667
"Bello Horizonte","Orellana",-0.9,-75.43333333333334
"Benigno Vela","Tungurahua",-1.2833333333333332,-78.68333333333334
"Benita","Guayas",-2.25,-79.73333333333333
"Benitez","Tungurahua",-1.3333333333333333,-78.58333333333333
"Berengena","Guayas",-1.8833333333333333,-79.73333333333333
"Berlin","Guayas",-2.1333333333333333,-79.6
"Bermeja","Sucumbios",0.28305555555555556,-77.07944444444443
"Bermejo","Napo",-0.5166666666666667,-77.88333333333334
"Bermejo","Guayas",-1.7666666666666666,-80.03333333333333
"Bermejos","Morona-Santiago",-3.3,-78.7
"Bestion","Azuay",-3.1666666666666665,-79.21666666666667
"Bibilcay","Cañar",-2.75,-78.8
"Biblian","Cañar",-2.7,-78.86666666666666
"Biffarini","Orellana",-0.8833333333333333,-75.23333333333333
"Bijagual","Los Ríos",-1.6,-79.36666666666666
"Billingota","Guayas",-2.3666666666666667,-80.46666666666667
"Bilovan","Bolívar",-1.8,-79.1
"Biron","El Oro",-3.5166666666666666,-79.81666666666666
"Blanco Macas","Azuay",-3.033333333333333,-78.93333333333334
"Boca Chica","Guayas",-1.3,-79.88333333333334
"Boca Dashino","Napo",-0.06666666666666667,-77.28333333333333
"Boca de Briceno","Manabí",-0.5166666666666667,-80.43333333333334
"Boca de Cana","Guayas",-2.0,-79.76666666666667
"Boca de Chila","Pichincha",-0.1,-79.6
"Boca de Guanabano","Guayas",-1.7333333333333334,-80.43333333333334
"Boca de Maria","Esmeraldas",1.0672222222222223,-78.94611111111111
"Boca de Palmito","Manabí",-0.06666666666666667,-79.73333333333333
"Boca Suno","Orellana",-0.7166666666666667,-77.13333333333334
"Boca Tiputini","Orellana",-0.8,-75.55
"Boca Yanayacu","Orellana",-0.8833333333333333,-75.21666666666667
"Bocana","Loja",-4.15,-80.41666666666667
"Bocana","El Oro",-3.1166666666666667,-79.91666666666667
"Bocana","Guayas",-1.8333333333333335,-79.81666666666666
"Bocana","Esmeraldas",1.075,-79.30555555555556
"Bocana del Bua","Pichincha",-0.016666666666666666,-79.58333333333333
"Bodeguita","Guayas",-2.066666666666667,-79.73333333333333
"Bola de Oro","Guayas",-2.7,-79.68333333333334
"Bolaloma","Loja",-3.8833333333333333,-79.26666666666667
"Boliche","Pichincha",-0.45,-78.7
"Boliche","Guayas",-2.3333333333333335,-79.63333333333334
"Bolivar","Carchi",0.5,-77.88333333333334
"Bolivar","Pastaza",-1.6166666666666667,-76.23333333333333
"Bolivar","Tungurahua",-1.3666666666666667,-78.55
"Bolivar","Esmeraldas",0.43333333333333335,-80.03333333333333
"Bolona","Pichincha",-0.4,-78.78333333333333
"Bomba","Guayas",-2.4,-80.78333333333333
"Bomboiza","Morona-Santiago",-3.4333333333333336,-78.51666666666667
"Bombon","Los Ríos",-1.4833333333333334,-79.78333333333333
"Bombonaqui","Pastaza",-1.5,-76.58333333333333
"Bonce","Manabí",-1.2333333333333334,-80.35
"Boqueron","Guayas",-1.8666666666666667,-79.95
"Borbon","Esmeraldas",1.0883333333333332,-78.9888888888889
"Borna","Azuay",-2.95,-78.86666666666666
"Borneo","Pichincha",-0.25,-79.13333333333334
"Borrero","Cañar",-2.7666666666666666,-78.81666666666666
"Botadero","Guayas",-2.6833333333333336,-80.36666666666666
"Botija Paquina","Cañar",-2.45,-79.01666666666667
"Boyaca","Manabí",-0.5666666666666667,-80.2
"Bramadero","Guayas",-1.9333333333333333,-79.93333333333334
"Bravos","Manabí",-0.6,-80.18333333333334
"Briones","Loja",-4.466666666666667,-80.36666666666666
"Bucay","Chimborazo",-2.1666666666666665,-79.1
"Bucay","Guayas",-2.6833333333333336,-79.66666666666667
"Bucay Chico","Cañar",-2.2333333333333334,-79.11666666666666
"Buena Esperanza","Guayas",-1.8666666666666667,-79.8
"Buena Fe","Guayas",-2.2666666666666666,-79.61666666666666
"Buena Fe","Los Ríos",-0.9,-79.48333333333333
"Buena Fe","Guayas",-1.8,-79.8
"Buena Fe","Zamora-Chinchipe",-3.6741666666666664,-78.60972222222222
"Buena Muerte","Cañar",-2.716666666666667,-78.91666666666667
"Buena Suerte","Guayas",-1.7666666666666666,-79.81666666666666
"Buena Vista","Sucumbios",0.10583333333333333,-76.92916666666667
"Buenaventura","El Oro",-3.6166666666666667,-79.8
"Buenavista","Loja",-3.8833333333333333,-79.7
"Buenavista","Sucumbios",0.43333333333333335,-76.28333333333333
"Buenavista","El Oro",-3.3666666666666667,-79.85
"Buenavista","Guayas",-2.9833333333333334,-79.81666666666666
"Buenavista","Guayas",-2.2,-80.36666666666666
"Buenos Aires","El Oro",-3.4,-80.2
"Buenos Aires","Guayas",-2.341666666666667,-80.50416666666666
"Buenos Aires","Manabí",-1.3666666666666667,-80.33333333333333
"Buenos Aires","Loja",-3.9833333333333334,-80.06666666666666
"Buenos Aires","Guayas",-1.95,-80.7
"Buenos Aires","Guayas",-2.2,-79.18333333333334
"Buenos Aires","Guayas",-2.7666666666666666,-79.91666666666667
"Buenos Aires","Esmeraldas",1.175,-78.90277777777779
"Bueste","Cañar",-2.65,-78.91666666666667
"Bugdel","Azuay",-2.7666666666666666,-78.7
"Buichum","Azuay",-2.8833333333333333,-78.78333333333333
"Buijo","Guayas",-2.1,-79.81666666666666
"Bulan","Azuay",-2.7333333333333334,-78.75
"Bulcay","Azuay",-2.8833333333333333,-78.78333333333333
"Bunche","Esmeraldas",0.65,-80.03333333333333
"Bunques","El Oro",-3.283333333333333,-79.6
"Burgay","Cañar",-2.6666666666666665,-78.93333333333334
"Buri","Azuay",-3.0833333333333335,-79.51666666666667
"Burin","Azuay",-2.85,-78.73333333333333
"Businga","Esmeraldas",0.8666666666666667,-79.46666666666667
"Cabano","Sucumbios",0.12916666666666668,-77.41388888888889
"Cabeza de Toro","Loja",-4.283333333333333,-80.33333333333333
"Cabo de Hornos","El Oro",-3.5833333333333335,-80.06666666666666
"Cabo Lampa","El Oro",-3.466666666666667,-80.06666666666666
"Cabo Minacho","Sucumbios",-0.1,-75.5
"Cabuncata","Azuay",-3.216666666666667,-79.15
"Cabuya","Guayas",-1.4833333333333334,-79.93333333333334
"Cabuyal","Manabí",-1.0,-80.13333333333334
"Cabuyal","Manabí",-0.05,-80.11666666666666
"Cabuyal","Esmeraldas",1.0333333333333334,-79.47500000000001
"Cacagual","Esmeraldas",1.1675,-78.99361111111111
"Cacao Punto","Orellana",-0.65,-77.13333333333334
"Cacaoal","Cotopaxi",-1.0166666666666666,-79.2
"Cacarrumi","Azuay",-3.0833333333333335,-79.01666666666667
"Cacha","Chimborazo",-1.7,-78.66666666666667
"Cachahuaico","Cañar",-2.65,-78.78333333333333
"Cachanlo de Sidcay","Azuay",-2.8166666666666664,-78.93333333333334
"Cachaulo de Machangara","Azuay",-2.8666666666666667,-78.96666666666667
"Cachi","Azuay",-3.216666666666667,-79.16666666666667
"Cachiguaico","Azuay",-3.05,-78.75
"Cachillacta","Pichincha",0.06666666666666667,-78.63333333333334
"Cachiloma","Cañar",-2.7333333333333334,-78.8
"Cachipamba","Loja",-3.9333333333333336,-79.28333333333333
"Cachipamba","Azuay",-2.95,-79.01666666666667
"Cachipamba","Cañar",-2.7,-78.83333333333333
"Cachipamba","Azuay",-3.4833333333333334,-79.16666666666667
"Cachipamba","Cañar",-2.75,-78.81666666666666
"Cachipirca","Loja",-3.85,-79.28333333333333
"Cachitambo","Pastaza",-2.2666666666666666,-76.78333333333333
"Cadeal","Guayas",-1.5833333333333335,-80.13333333333334
"Cadeate","Guayas",-1.8833333333333333,-80.76666666666667
"Cadenillas","Tungurahua",-1.3833333333333333,-78.26666666666667
"Caferino Espanol","Guayas",-1.2666666666666666,-79.9
"Caguanshum Chico","Azuay",-2.8666666666666667,-78.8
"Caguashum Grande","Azuay",-2.8833333333333333,-78.8
"Cahuasqui","Imbabura",0.5166666666666667,-78.23333333333333
"Caiguas","Azuay",-2.7666666666666666,-78.65
"Caimito","Esmeraldas",0.7166666666666667,-80.08333333333333
"Caimito","Guayas",-2.3833333333333333,-80.36666666666666
"Caipi","Zamora-Chinchipe",-3.7108333333333334,-78.5625
"Cajabamba","Chimborazo",-1.7,-78.75
"Cajas","Azuay",-2.8166666666666664,-79.26666666666667
"Cajon Tambo","Cañar",-2.533333333333333,-78.85
"Cajontambo","Cañar",-2.5,-78.83333333333333
"Calabi","Los Ríos",-1.1833333333333333,-79.36666666666666
"Calabria","Los Ríos",-1.7833333333333332,-79.56666666666666
"Calacali","Pichincha",0.0,-78.51666666666667
"Calceta","Manabí",-0.85,-80.16666666666667
"Calcicante","Guayas",-2.183333333333333,-80.6
"Caldera","Azuay",-2.8166666666666664,-78.95
"Calderon","Esmeraldas",1.1786111111111113,-78.76527777777778
"Calderon","Pichincha",-0.1,-78.43333333333334
"Caledonias","Azuay",-3.216666666666667,-79.21666666666667
"Calentura","Guayas",-2.1166666666666667,-79.83333333333333
"Calera","Pichincha",-0.03333333333333333,-78.56666666666666
"Calhuache","Chimborazo",-1.7333333333333334,-78.71666666666667
"Calichana","El Oro",-3.4,-79.81666666666666
"Caliguina","Azuay",-3.216666666666667,-79.55
"Callancay","Azuay",-3.066666666666667,-78.76666666666667
"Callejon","Azuay",-3.05,-79.08333333333333
"Calpi","Chimborazo",-1.65,-78.73333333333333
"Calug","Azuay",-2.9833333333333334,-78.73333333333333
"Caluguro","El Oro",-3.5166666666666666,-79.88333333333334
"Calvario","Azuay",-3.2666666666666666,-79.3
"Calvario","Loja",-3.85,-79.38333333333334
"Calvario","Azuay",-2.7666666666666666,-78.75
"Calvario","El Oro",-3.5,-79.91666666666667
"Camara","Azuay",-3.3333333333333335,-79.15
"Camarones","Esmeraldas",0.9833333333333333,-79.56666666666666
"Camarones","Loja",-4.416666666666667,-80.38333333333334
"Cambana","Zamora-Chinchipe",-3.658888888888889,-78.90833333333335
"Camilo Ponce Enriquez","Azuay",-3.05,-79.73333333333333
"Campamento Agua Colorada","Zamora-Chinchipe",-4.577222222222222,-78.66333333333334
"Campamento Aragundi","Guayas",-2.783333333333333,-79.7
"Campamento El Abandono","Zamora-Chinchipe",-4.610555555555555,-78.69972222222222
"Campamento El Diluvio","Zamora-Chinchipe",-4.619444444444445,-78.72472222222223
"Campamento El Mirador","Zamora-Chinchipe",-4.639166666666666,-78.77
"Campamento La Hambruna","Zamora-Chinchipe",-4.541944444444444,-78.66222222222223
"Campamento La Pampa","Zamora-Chinchipe",-4.556111111111111,-78.66027777777778
"Campamento Quinones","Guayas",-2.7666666666666666,-79.73333333333333
"Campamento Ruisenor","Zamora-Chinchipe",-4.523333333333333,-78.65777777777778
"Campanaguaico","Azuay",-2.9,-79.1
"Campanaka Entza","Morona-Santiago",-3.4975,-78.49138888888889
"Campanita","Esmeraldas",1.388611111111111,-78.77777777777777
"Campo Alegre","Esmeraldas",0.9,-79.78333333333333
"Campo Alegre","Guayas",-2.8,-80.13333333333334
"Campozano","Manabí",-1.5833333333333335,-80.4
"Canaan","Guayas",-1.9,-80.0
"Canalaurco","Azuay",-3.4,-79.05
"Canales","Los Ríos",-1.3333333333333333,-79.81666666666666
"Cananguchal","Sucumbios",0.26666666666666666,-76.81666666666666
"Canar","Cañar",-2.55,-78.93333333333334
"Canaria","Guayas",-1.3166666666666667,-79.85
"Canaribamba","Azuay",-3.1666666666666665,-79.3
"Canaro","Azuay",-2.9,-79.1
"Canas","El Oro",-3.8333333333333335,-80.08333333333333
"Canas","Manabí",-1.1833333333333333,-80.8
"Canaveral","Guayas",-1.3166666666666667,-79.9
"Canaveral","Manabí",0.21666666666666667,-80.03333333333333
"Canaveral","Los Ríos",-1.7,-79.43333333333334
"Canaveral de Afuera","Los Ríos",-1.7333333333333334,-79.48333333333333
"Cancay","Azuay",-2.9,-78.73333333333333
"Canchagua","Cotopaxi",-0.8,-78.68333333333334
"Canchimalero","Esmeraldas",1.2625,-78.99805555555555
"Candelaria","Guayas",-1.9,-79.86666666666666
"Candelaria","Guayas",-2.033333333333333,-79.93333333333334
"Canelos","Pastaza",-1.5833333333333335,-77.75
"Canelos","Morona-Santiago",-2.8333333333333335,-77.95
"Cangahua","Pichincha",-0.06666666666666667,-78.16666666666667
"Cangaimine","Morona-Santiago",-2.3166666666666664,-77.66666666666667
"Cangas","Morona-Santiago",-2.914722222222222,-77.9225
"Cango","Loja",-4.333333333333333,-79.56666666666666
"Cangonama","Loja",-3.966666666666667,-79.7
"Cangrejo","Guayas",-2.1333333333333333,-80.76666666666667
"Canguraca","Loja",-4.216666666666667,-79.86666666666666
"Cani","Chimborazo",-1.8,-78.98333333333333
"Canitas","Guayas",-2.0,-80.58333333333333
"Canitas","Manabí",-0.85,-80.48333333333333
"Canitas","Manabí",-1.5,-80.51666666666667
"Canoa","Manabí",-0.4666666666666667,-80.45
"Canoa","Azuay",-2.8666666666666667,-79.38333333333334
"Canonero","Pichincha",-0.23333333333333334,-79.21666666666667
"Cantagallo","Azuay",-2.8,-78.83333333333333
"Cantagallo","Guayas",-2.25,-79.83333333333333
"Cantagallo","Manabí",-1.3,-80.73333333333333
"Cantarama","Esmeraldas",1.0833333333333333,-78.98611111111111
"Cantzama","Zamora-Chinchipe",-3.855,-78.88472222222222
"Canuto","Manabí",-0.8,-80.11666666666666
"Canzacoto","Pichincha",-0.43333333333333335,-78.75
"Capadino Entza","Morona-Santiago",-2.1166666666666667,-77.8
"Capailoma","Pichincha",0.16666666666666666,-78.08333333333333
"Capareac","Azuay",-3.066666666666667,-78.78333333333333
"Capas","Loja",-4.15,-80.31666666666666
"Capihuara","Orellana",-0.48333333333333334,-77.23333333333333
"Capilla Mauta","Azuay",-3.466666666666667,-79.16666666666667
"Capillapamba","Azuay",-2.9166666666666665,-78.78333333333333
"Capiro","El Oro",-3.7666666666666666,-79.71666666666667
"Capitan Augosto Rivadeneira","Orellana",-0.6166666666666667,-75.88333333333334
"Capizun","Morona-Santiago",-3.061111111111111,-78.04916666666666
"Caple","Esmeraldas",0.5833333333333334,-79.55
"Capone","Guayas",-1.9833333333333334,-79.78333333333333
"Capuli Chico","Carchi",0.5666666666666667,-77.83333333333333
"Capulicrin","Azuay",-2.75,-78.76666666666667
"Capur","Loja",-3.8333333333333335,-79.23333333333333
"Capzhua","Azuay",-2.9,-78.75
"Capzol","Chimborazo",-2.3,-78.91666666666667
"Caracol","Los Ríos",-1.6666666666666665,-79.43333333333334
"Caranango","Loja",-4.25,-79.26666666666667
"Caranqui","Imbabura",0.31666666666666665,-78.13333333333334
"Carbillo","El Oro",-3.533333333333333,-80.2
"Carbonada","Guayas",-1.9166666666666665,-79.7
"Carcabon","El Oro",-3.6333333333333333,-80.2
"Cargalchina","Cañar",-2.55,-79.23333333333333
"Cargue","Cañar",-2.5833333333333335,-79.31666666666666
"Cariaco","Pichincha",0.11666666666666667,-78.66666666666667
"Cariacu","Pichincha",0.08333333333333333,-78.1
"Cariacu","Azuay",-2.8666666666666667,-78.91666666666667
"Cariamanga","Sucumbios",0.025277777777777777,-76.99222222222222
"Cariamanga","Loja",-4.333333333333333,-79.55
"Carishao","Azuay",-2.8666666666666667,-78.95
"Carlos Julio Arosemena Tola","Napo",-1.2,-77.85
"Carlos Ordonez Lazo","Azuay",-2.8166666666666664,-78.76666666666667
"Carmela","Guayas",-1.7166666666666668,-80.0
"Carmela","Pichincha",-0.21666666666666667,-79.23333333333333
"Carmela","Cañar",-2.6333333333333333,-78.9
"Carmela","Guayas",-2.1,-79.66666666666667
"Carmela","Los Ríos",-1.9166666666666665,-79.68333333333334
"Carmela","Pichincha",-0.65,-79.0
"Carmelita","Guayas",-1.9333333333333333,-79.66666666666667
"Carmelo","Loja",-3.9833333333333334,-79.71666666666667
"Carmelo","Pichincha",-0.4166666666666667,-78.41666666666667
"Carmen","Pichincha",-0.36666666666666664,-78.48333333333333
"Carmen","Guayas",-2.1666666666666665,-79.66666666666667
"Carmen Leonor","Guayas",-2.1,-79.7
"Carolina","Guayas",-2.216666666666667,-80.93333333333334
"Carolina","Imbabura",0.7833333333333333,-78.3
"Carolina","Guayas",-2.05,-79.73333333333333
"Carondelet","Esmeraldas",1.126111111111111,-78.76222222222222
"Carrizal","Loja",-4.05,-80.03333333333333
"Carrizal","Guayas",-2.3333333333333335,-80.05
"Carrizal","Guayas",-2.1166666666666667,-80.46666666666667
"Carrizal","Guayas",-2.066666666666667,-79.53333333333333
"Carrizal","Manabí",0.2833333333333333,-80.01666666666667
"Carrizal","Guayas",-1.9166666666666665,-80.68333333333334
"Carrizal","Guayas",-1.8833333333333333,-79.7
"Carrizal","Guayas",-1.85,-80.13333333333334
"Casacay","El Oro",-3.3333333333333335,-79.76666666666667
"Casadel","Azuay",-3.3666666666666667,-79.13333333333334
"Cascajal","Guayas",-1.7833333333333332,-80.18333333333334
"Cascajal","Guayas",-2.066666666666667,-79.93333333333334
"Cascajo","Pichincha",-0.08333333333333333,-78.16666666666667
"Cascarilla","Los Ríos",-1.1833333333333333,-79.5
"Cascol","Manabí",-1.6666666666666665,-80.46666666666667
"Caserio","Orellana",-0.8,-76.25
"Caserio Venceslao","Esmeraldas",0.9666666666666667,-78.96666666666667
"Cashapamba","Pichincha",-0.35,-78.55
"Cashapata","Azuay",-2.9,-79.03333333333333
"Casharum","Loja",-4.1,-79.93333333333334
"Cashatoma","Loja",-3.9833333333333334,-79.51666666666667
"Cashuin","Cañar",-2.466666666666667,-79.06666666666666
"Casiguana","Guayas",-2.1333333333333333,-79.78333333333333
"Casita","Esmeraldas",1.3833333333333333,-78.88333333333334
"Casita","Esmeraldas",0.6833333333333333,-80.08333333333333
"Casitas","Pichincha",-3.3333333333333335,-79.58333333333333
"Caspa Yacu","Pastaza",-2.3333333333333335,-76.73333333333333
"Caspi-Corral","Azuay",-3.066666666666667,-78.98333333333333
"Castelnovo","Esmeraldas",0.8833333333333333,-79.81666666666666
"Catacocha","Loja",-4.066666666666666,-79.63333333333334
"Catacupamba","Pichincha",0.11666666666666667,-78.16666666666667
"Catamaillo","Loja",-4.35,-80.21666666666667
"Catamayo","Loja",-3.9833333333333334,-79.35
"Catambas","Loja",-4.4,-80.46666666666667
"Catanas","Loja",-4.066666666666666,-80.4
"Catarama","Los Ríos",-1.5833333333333335,-79.46666666666667
"Catimbo","Tungurahua",-1.3166666666666667,-78.56666666666666
"Cauchiche","Guayas",-2.75,-80.21666666666667
"Cauquil","Azuay",-3.183333333333333,-79.23333333333333
"Cautivo","Guayas",-2.216666666666667,-80.9
"Cavertul","Cañar",-2.6166666666666667,-78.66666666666667
"Cavino","Guayas",-2.216666666666667,-80.35
"Cayagama","Sucumbios",0.010555555555555556,-77.38583333333334
"Cayambe","Pichincha",0.05,-78.13333333333334
"Cayapas","Esmeraldas",0.8666666666666667,-78.95
"Cayarca","El Oro",-3.466666666666667,-80.15
"Cazaderos","Loja",-4.083333333333333,-80.48333333333333
"Cebadas","Chimborazo",-1.9,-78.61666666666666
"Cebollar","Azuay",-2.8666666666666667,-79.01666666666667
"Cecel","Chimborazo",-1.8833333333333333,-78.66666666666667
"Cecilia","Guayas",-2.0,-79.96666666666667
"Cedropamba","Cañar",-2.533333333333333,-79.33333333333333
"Cedropamba","Azuay",-2.8,-78.66666666666667
"Ceiba","Guayas",-2.216666666666667,-79.9
"Ceibal","Loja",-4.45,-79.71666666666667
"Ceibo Mocho","Loja",-4.2,-80.16666666666667
"Ceibo Pamba","Loja",-4.233333333333333,-79.35
"Ceilan","Pastaza",-1.6,-75.66666666666667
"Celel","Azuay",-2.6833333333333336,-78.65
"Celen","Loja",-3.5666666666666664,-79.26666666666667
"Celica","Loja",-4.116666666666666,-79.95
"Celis","Azuay",-2.9333333333333336,-79.53333333333333
"Centinela","Sucumbios",0.016666666666666666,-75.98333333333333
"Centinela","Guayas",-2.2333333333333334,-80.55
"Central","Sucumbios",-0.2,-76.65
"Centro Cushapucus","Morona-Santiago",-3.0349999999999997,-78.0261111111111
"Centro Kunkuk'","Morona-Santiago",-3.312777777777778,-78.22166666666666
"Centro Miasi","Zamora-Chinchipe",-3.5505555555555555,-78.57638888888889
"Centro Numpatkaim'","Morona-Santiago",-3.2847222222222223,-78.2388888888889
"Centro San Jose","Morona-Santiago",-3.441666666666667,-78.47
"Centro Shuara","Zamora-Chinchipe",-3.8488888888888892,-78.90027777777779
"Centro Shuara de Manchinaza","Zamora-Chinchipe",-3.613888888888889,-78.53111111111112
"Centro Shuara del Quimi","Zamora-Chinchipe",-3.6119444444444446,-78.55749999999999
"Centro Shuara Kunchaim","Morona-Santiago",-3.529166666666667,-78.59944444444444
"Centro Shuara La Inmaculada","Morona-Santiago",-3.5236111111111112,-78.56277777777777
"Centro Timkimints","Morona-Santiago",-3.253888888888889,-78.22611111111111
"Cera","Loja",-3.9166666666666665,-79.28333333333333
"Cerco Pata","Cañar",-2.4833333333333334,-79.13333333333334
"Cerecita","Guayas",-2.35,-80.28333333333333
"Cerezal","Guayas",-2.0166666666666666,-80.6
"Cerrito","Guayas",-1.9,-79.7
"Cerrito","Los Ríos",-1.6166666666666667,-79.51666666666667
"Cerritos","Guayas",-2.25,-79.7
"Cerro Alto","Azuay",-2.9333333333333336,-78.86666666666666
"Cerro Alto","Guayas",-1.6333333333333333,-80.1
"Cerro Milagros","Loja",-4.083333333333333,-80.15
"Cerro Negro","Azuay",-3.2333333333333334,-79.6
"Cerro Verde","Loja",-4.15,-80.25
"Cevallos","Tungurahua",-1.35,-78.61666666666666
"Chacahuizho","Azuay",-3.4166666666666665,-79.13333333333334
"Chacan","Chimborazo",-1.75,-78.73333333333333
"Chacance","Guayas",-1.9166666666666665,-79.68333333333334
"Chacanceo","Azuay",-2.65,-79.35
"Chacapamba","Azuay",-2.9,-78.76666666666667
"Chacarrumi","Azuay",-2.9,-79.05
"Chacauco","Pichincha",-1.45,-78.48333333333333
"Chacras","El Oro",-3.55,-80.2
"Chade","Manabí",-1.2833333333333332,-80.56666666666666
"Chaguan","Azuay",-3.15,-79.01666666666667
"Chaguaraco","Pichincha",0.23333333333333334,-78.78333333333333
"Chaguarhuayco","Loja",-4.016666666666667,-80.31666666666666
"Chaguarloma","Azuay",-2.8833333333333333,-78.75
"Chaguarpamba","Loja",-3.85,-79.65
"Chahuar Huayev","Loja",-4.183333333333334,-80.15
"Chalanga","Loja",-3.95,-79.7
"Chalcalo","Azuay",-3.2666666666666666,-79.38333333333334
"Chalcapa","Azuay",-3.2333333333333334,-79.2
"Chalcur","Cañar",-2.7333333333333334,-78.86666666666666
"Chalpi","Napo",-0.36666666666666664,-78.06666666666666
"Chambac","Tungurahua",-1.35,-78.53333333333333
"Chambarango","Loja",-4.35,-80.26666666666667
"Chambira","Pastaza",-1.6,-77.6
"Chambo","Chimborazo",-1.7333333333333334,-78.58333333333333
"Chamucate","Manabí",-1.25,-80.38333333333334
"Chanala","Morona-Santiago",-2.2,-78.35
"Chanana","Guayas",-1.7,-80.0
"Chancama","Esmeraldas",0.6,-79.55
"Chanchas","Pichincha",-0.2833333333333333,-78.5
"Chanchun","Cañar",-2.7666666666666666,-78.91666666666667
"Chandil","Cañar",-2.7333333333333334,-78.81666666666666
"Chanduy","Guayas",-2.4166666666666665,-80.66666666666667
"Changaimina","Loja",-4.216666666666667,-79.51666666666667
"Changuaral","Esmeraldas",1.3808333333333334,-78.86805555555554
"Chanquinima","Loja",-4.2,-79.5
"Chantaco","Loja",-3.8833333333333333,-79.33333333333333
"Chantilin","Cotopaxi",-0.85,-78.65
"Chapar","Azuay",-3.0166666666666666,-79.03333333333333
"Chapeguaico","Azuay",-2.7333333333333334,-78.73333333333333
"Chapeton","Azuay",-2.85,-78.8
"Chapintza","Zamora-Chinchipe",-3.7669444444444444,-78.87083333333332
"Chapiza","Morona-Santiago",-2.8316666666666666,-77.89555555555556
"Chapulo","Los Ríos",-1.7333333333333334,-79.6
"Chaquicuna","Loja",-3.9166666666666665,-79.41666666666667
"Chaquilcay","Azuay",-2.9,-78.85
"Chaquinal","Loja",-4.033333333333333,-80.05
"Chaquino","Loja",-4.183333333333334,-80.4
"Chaquiro","Loja",-4.35,-80.31666666666666
"Characay","Cañar",-2.5166666666666666,-79.0
"Charapa","Sucumbios",0.19777777777777777,-76.81694444444445
"Charapa Juntai","Morona-Santiago",-2.513888888888889,-77.55583333333333
"Charapoto","Manabí",-0.8333333333333334,-80.48333333333333
"Charco Largo","Carchi",1.1333333333333333,-78.5
"Charohuaina","Loja",-3.5833333333333335,-79.23333333333333
"Charon","Azuay",-3.033333333333333,-78.81666666666666
"Chasqui","Cotopaxi",-0.7,-78.58333333333333
"Chasquin","Azuay",-2.966666666666667,-78.85
"Chau","Morona-Santiago",-2.8211111111111107,-77.76916666666666
"Chaucan","Azuay",-2.95,-78.7
"Chaucha","Azuay",-2.9,-79.4
"Chaucha","Cañar",-2.45,-79.0
"Chauliayacu","Azuay",-2.9833333333333334,-79.03333333333333
"Chaulla","Azuay",-3.2333333333333334,-79.21666666666667
"Chaullamba","Azuay",-2.85,-78.9
"Chaupi","Pichincha",-0.6,-78.63333333333334
"Chaupi Estancia","Pichincha",-0.03333333333333333,-78.25
"Chaupi Loma","Pichincha",0.1,-78.2
"Chaupihacienda","Azuay",-2.9833333333333334,-78.9
"Chaupitranca","Azuay",-3.0166666666666666,-79.56666666666666
"Chaupitranca","Guayas",-3.05,-79.76666666666667
"Chavalula","Azuay",-2.9333333333333336,-78.75
"Chavay","Cañar",-2.783333333333333,-78.83333333333333
"Chavez","Manabí",-0.7,-80.31666666666666
"Chavezpamba","Pichincha",0.13333333333333333,-78.38333333333334
"Checa","Pichincha",-0.13333333333333333,-78.31666666666666
"Checa","Azuay",-2.783333333333333,-79.0
"Checo","Loja",-4.483333333333333,-79.5
"Checo","El Oro",-3.45,-80.03333333333333
"Chequero","Azuay",-3.4333333333333336,-79.15
"Chibuleo","Tungurahua",-1.3,-78.71666666666667
"Chical","Carchi",1.0333333333333334,-78.23333333333333
"Chical","Cañar",-2.4,-78.96666666666667
"Chican","Azuay",-2.8166666666666664,-78.75
"Chicana","Zamora-Chinchipe",-3.7241666666666666,-78.74333333333334
"Chicana Alto","Zamora-Chinchipe",-3.707777777777778,-78.76333333333334
"Chicana Bajo","Zamora-Chinchipe",-3.749722222222222,-78.73277777777778
"Chicaptire","Azuay",-2.9333333333333336,-79.05
"Chiche","El Oro",-3.3333333333333335,-79.66666666666667
"Chiches","Zamora-Chinchipe",-3.641388888888889,-78.5961111111111
"Chichirota","Pastaza",-2.3833333333333333,-76.65
"Chichis","Morona-Santiago",-3.0233333333333334,-77.96805555555555
"Chico Tomalon","Pichincha",0.0,-78.25
"Chicon","Cañar",-2.4333333333333336,-78.98333333333333
"Chicticay","Azuay",-2.8666666666666667,-78.83333333333333
"Chigledel","Cañar",-2.5666666666666664,-79.18333333333334
"Chigshiguin","Cañar",-2.7333333333333334,-78.85
"Chiguan","Azuay",-3.1166666666666667,-79.53333333333333
"Chiguango","Loja",-3.8833333333333333,-79.56666666666666
"Chiguaza","Morona-Santiago",-2.0166666666666666,-77.96666666666667
"Chiguaza","Morona-Santiago",-1.9333333333333333,-77.83333333333333
"Chiguilpe","Pichincha",-0.26666666666666666,-79.1
"Chiguinda","Morona-Santiago",-3.3,-78.68333333333334
"Chiguipe","Pichincha",-0.05,-78.83333333333333
"Chila","Manabí",-0.11666666666666667,-80.06666666666666
"Chilcapamba","Azuay",-2.95,-78.96666666666667
"Chilchil","Cañar",-2.45,-79.16666666666667
"Chilicay","Cañar",-2.25,-79.1
"Chilintomo","Guayas",-1.9,-79.5
"Chilla","Azuay",-3.35,-79.21666666666667
"Chilla","Azuay",-2.95,-78.9
"Chilla","El Oro",-3.466666666666667,-79.58333333333333
"Chillanes","Bolívar",-1.9333333333333333,-79.06666666666666
"Chillavi","Esmeraldas",1.087222222222222,-78.775
"Chillavi del Ceibo","Esmeraldas",1.0791666666666666,-78.81333333333333
"Chillogallo","Pichincha",-0.26666666666666666,-78.56666666666666
"Chima","Los Ríos",-1.9,-79.4
"Chimba","Pichincha",0.13333333333333333,-78.05
"Chimbocal","Esmeraldas",1.3,-78.83333333333333
"Chimbucta","Morona-Santiago",-2.3333333333333335,-77.43333333333334
"Chimbuza","Zamora-Chinchipe",-3.776944444444444,-78.74555555555555
"Chimul","Azuay",-2.8166666666666664,-78.65
"Chinas","Guayas",-1.2333333333333334,-79.9
"Chinca","Esmeraldas",0.7666666666666667,-79.58333333333333
"Chinchanga","Loja",-4.183333333333334,-79.73333333333333
"Chinchin","Tungurahua",-1.3833333333333333,-78.31666666666666
"Chinchin Loma","Pichincha",-0.05,-78.28333333333333
"Chinchinales","Imbabura",0.5166666666666667,-78.15
"Chinchipe","Guayas",-2.2,-81.0
"Chingual","Sucumbios",0.21666666666666667,-77.5
"Chingual","Sucumbios",0.65,-77.58333333333333
"Chinguil","Pichincha",-0.21666666666666667,-78.65
"Chini","Cotopaxi",-1.1166666666666667,-78.95
"Chinimbimi","Morona-Santiago",-2.6333333333333333,-78.26666666666667
"Chinintahua","Tungurahua",-1.1,-78.55
"Chinipata","Azuay",-2.8166666666666664,-78.66666666666667
"Chinkianas","Morona-Santiago",-2.941666666666667,-77.91916666666667
"Chipo","Chimborazo",-1.9666666666666668,-78.75
"Chiquiac","Azuay",-2.8166666666666664,-78.76666666666667
"Chiquicha","Tungurahua",-1.2666666666666666,-78.53333333333333
"Chiquil","El Oro",-3.45,-79.6
"Chiquilpe","Pichincha",-0.03333333333333333,-78.58333333333333
"Chiquintad","Azuay",-2.8166666666666664,-79.0
"Chiriboga","Pichincha",-0.25,-78.73333333333333
"Chirin","Cañar",-2.5833333333333335,-79.11666666666666
"Chirinche de Paez","Cotopaxi",-1.0833333333333333,-78.65
"Chischiguin","Cañar",-2.7333333333333334,-78.85
"Chita","Manabí",-0.4666666666666667,-80.33333333333333
"Chitan","Carchi",0.6333333333333333,-77.8
"Chito","Zamora-Chinchipe",-4.933333333333334,-79.05
"Chituca","Azuay",-3.0,-78.98333333333333
"Chiveria","Guayas",-1.9666666666666668,-80.0
"Chives","Guayas",-1.3,-79.83333333333333
"Chivilin","Azuay",-3.2666666666666666,-78.98333333333333
"Chobo","Guayas",-2.15,-79.63333333333334
"Chobsi","Azuay",-3.05,-78.78333333333333
"Chocacorta","Loja",-3.533333333333333,-79.5
"Chocar","Azuay",-2.9333333333333336,-78.75
"Chocar","Cañar",-2.4,-78.96666666666667
"Chocar","Azuay",-3.0,-78.73333333333333
"Choday","Guayas",-2.1666666666666665,-79.66666666666667
"Chone","Manabí",-0.6833333333333333,-80.1
"Chongon","Guayas",-2.2333333333333334,-80.06666666666666
"Chongoncito","Guayas",-2.2333333333333334,-80.08333333333333
"Chontacruz","Loja",-4.066666666666666,-79.2
"Chontaduro","Esmeraldas",0.9333333333333333,-79.45
"Chontal","Morona-Santiago",-2.783333333333333,-78.51666666666667
"Chontamarca","Cañar",-2.4333333333333336,-79.1
"Chontapamba","Tungurahua",-1.4166666666666667,-78.48333333333333
"Chontapunta","Napo",-0.9,-77.33333333333333
"Chordeleg","Azuay",-2.9333333333333336,-78.76666666666667
"Chorocopte","Cañar",-2.5833333333333335,-78.95
"Chorrera","Los Ríos",-1.8666666666666667,-79.58333333333333
"Chorro Grande","Azuay",-3.1333333333333333,-79.16666666666667
"Chorroblanco","Azuay",-2.8166666666666664,-78.8
"Chorrohuaico","Azuay",-3.066666666666667,-79.33333333333333
"Chota","Imbabura",0.4666666666666667,-78.06666666666666
"Chucar","Azuay",-3.0833333333333335,-78.76666666666667
"Chucchilan","Cotopaxi",-0.8,-78.91666666666667
"Chuchucan","Cañar",-2.5833333333333335,-79.05
"Chuchumbleza","Morona-Santiago",-3.5308333333333333,-78.53083333333333
"Chuchun","Cañar",-2.5166666666666666,-78.96666666666667
"Chuga","Imbabura",0.38333333333333336,-77.9
"Chugchilan","Cotopaxi",-0.8,-78.91666666666667
"Chuguin Grande","Cañar",-2.5666666666666664,-78.88333333333334
"Chulo","Azuay",-2.716666666666667,-79.26666666666667
"Chumbela","Morona-Santiago",-2.5666666666666664,-77.08333333333333
"Chumbela","Pastaza",-2.1,-77.41666666666667
"Chumblin","Azuay",-3.183333333333333,-79.25
"Chumunde","Esmeraldas",0.8333333333333334,-79.41666666666667
"Chunasana","Azuay",-3.283333333333333,-79.1
"Chunchi","Chimborazo",-2.283333333333333,-78.91666666666667
"Chunucari","Azuay",-3.05,-78.78333333333333
"Chupadores","El Oro",-3.4,-80.2
"Chupianza","Morona-Santiago",-2.6833333333333336,-78.3
"Chuque","Guayas",-1.7666666666666666,-79.8
"Chuqui","Azuay",-3.1333333333333333,-79.48333333333333
"Chuquipogyo","Chimborazo",-1.55,-78.83333333333333
"Chuquiribamba","Loja",-3.8333333333333335,-79.33333333333333
"Chura","Esmeraldas",0.6,-79.48333333333333
"Churugudo","Azuay",-3.05,-79.06666666666666
"Churumanga","Tungurahua",-1.2833333333333332,-78.56666666666666
"Churute","Guayas",-2.4333333333333336,-79.65
"Cia Cayapas","Esmeraldas",1.3025,-78.79138888888889
"Ciano","Loja",-3.9,-79.96666666666667
"Cienaga de Afuera","Guayas",-2.3333333333333335,-80.36666666666666
"Cienega","Manabí",-0.7666666666666667,-80.18333333333334
"Cienega","Guayas",-2.3166666666666664,-80.4
"Cienega Redonda","Guayas",-1.8666666666666667,-80.1
"Cimientos","Cañar",-2.4166666666666665,-79.15
"Cinco de Junio","Esmeraldas",0.95,-78.78333333333333
"Cinco Hermanas","Guayas",-2.0833333333333335,-79.71666666666667
"Ciruelas","Loja",-4.283333333333333,-80.13333333333334
"Citacar","Cañar",-2.6,-78.93333333333334
"Ciudadela Costa de Oro","Manabí",-2.225,-80.93333333333334
"Ciudadela Santa Martha","Manabí",-0.9583333333333333,-80.74444444444444
"Clemencia","Esmeraldas",0.8833333333333333,-79.63333333333334
"Clemencia","Tungurahua",-1.4166666666666667,-78.5
"Clemencia","Guayas",-1.6833333333333333,-79.83333333333333
"Clemencia","Los Ríos",-1.35,-79.58333333333333
"Clementina","Guayas",-1.85,-79.86666666666666
"Clementina","Guayas",-2.033333333333333,-79.76666666666667
"Cleopatra","Guayas",-1.9333333333333333,-79.78333333333333
"Cleotilde","Guayas",-1.8666666666666667,-79.73333333333333
"Coangos","Morona-Santiago",-3.4975,-78.23111111111112
"Coangos","Morona-Santiago",-3.0994444444444444,-78.22527777777778
"Coaque","Manabí",0.0,-80.1
"Coca","Azuay",-3.05,-79.66666666666667
"Cocha","Pichincha",-0.3,-78.4
"Cochahuaico","Cañar",-2.7333333333333334,-78.88333333333334
"Cochaloma","Azuay",-2.8666666666666667,-78.76666666666667
"Cochaloma","Loja",-3.9333333333333336,-79.31666666666666
"Cochapamba","Sucumbios",0.05333333333333334,-76.96361111111112
"Cochapamba","Azuay",-2.95,-78.95
"Cochapamba","Azuay",-2.9833333333333334,-78.88333333333334
"Cochapata","Azuay",-3.4,-79.06666666666666
"Cochaquingu","Pastaza",-1.3833333333333333,-76.95
"Cochatos","Azuay",-3.0166666666666666,-79.03333333333333
"Cofradia","Loja",-4.6,-79.5
"Cojimies","Manabí",0.36666666666666664,-80.03333333333333
"Cojitambo","Cañar",-2.75,-78.86666666666666
"Cola","Loja",-3.95,-79.56666666666666
"Colaisaca","Loja",-4.3,-79.66666666666667
"Colanga","Loja",-4.4,-79.7
"Colay","Loja",-4.083333333333333,-80.0
"Colegio","Cañar",-2.55,-78.91666666666667
"Colimes","Guayas",-1.55,-80.01666666666667
"Collay Chico","Azuay",-2.8666666666666667,-78.61666666666666
"Collay Grande","Azuay",-2.9,-78.65
"Colon","Esmeraldas",0.7333333333333333,-79.06666666666666
"Colon","Manabí",-1.1166666666666667,-80.41666666666667
"Colon Eloy Alfaro","Esmeraldas",1.021388888888889,-78.91000000000001
"Colonche","Guayas",-2.0166666666666666,-80.66666666666667
"Colorado","Guayas",-1.85,-79.98333333333333
"Colorado","Manabí",-1.0166666666666666,-80.68333333333334
"Colorado","Guayas",-1.0833333333333333,-79.65
"Coltapamba","Chimborazo",-1.7333333333333334,-78.75
"Columbe","Chimborazo",-1.8833333333333333,-78.7
"Compania","Azuay",-2.8833333333333333,-78.96666666666667
"Compona","Guayas",-1.8,-79.88333333333334
"Compud","Chimborazo",-2.3333333333333335,-78.91666666666667
"Comuna Chuscuyacu","Sucumbios",0.04833333333333333,-77.39222222222223
"Comunidad de Salamala","Cotopaxi",-0.85,-78.71666666666667
"Conambo","Pastaza",-1.8666666666666667,-76.78333333333333
"Concepcion","Esmeraldas",1.0366666666666668,-78.82916666666667
"Concepcion","Esmeraldas",0.5166666666666667,-79.95
"Concepcion","Los Ríos",-1.75,-79.71666666666667
"Concepcion","Orellana",-0.8,-77.41666666666667
"Conchay","Morona-Santiago",-2.778611111111111,-77.80055555555555
"Concordia","Guayas",-2.7666666666666666,-79.91666666666667
"Condolanga","Loja",-4.483333333333333,-79.76666666666667
"Condor","Guayas",-2.1,-79.65
"Condor Samana","Zamora-Chinchipe",-3.6377777777777776,-78.99111111111111
"Condorahua","Tungurahua",-1.2833333333333332,-78.56666666666666
"Conducta","Guayas",-2.183333333333333,-79.5
"Conejo","Esmeraldas",0.13333333333333333,-79.55
"Conga","Pichincha",-0.016666666666666666,-78.6
"Congo","Guayas",-1.2666666666666666,-79.86666666666666
"Conguillo","Guayas",-1.15,-79.76666666666667
"Conguime","Morona-Santiago",-3.5058333333333334,-78.5461111111111
"Conocoto","Pichincha",-0.3,-78.48333333333333
"Cononaco","Pastaza",-1.5166666666666666,-75.6
"Constancia","Pichincha",-0.3333333333333333,-79.43333333333334
"Constantino Fernandez","Tungurahua",-1.2,-78.65
"Consuelo","Guayas",-1.55,-79.9
"Consumulo","Pichincha",-0.26666666666666666,-79.35
"Convento","Manabí",-0.2833333333333333,-80.05
"Convento","Guayas",-1.9166666666666665,-79.6
"Copal","Morona-Santiago",-2.6833333333333336,-78.4
"Copchal","Azuay",-2.8166666666666664,-78.73333333333333
"Copradia","Loja",-4.25,-79.73333333333333
"Copte","Azuay",-2.783333333333333,-79.36666666666666
"Coquito","Esmeraldas",0.6908333333333333,-80.13472222222222
"Corazari","Azuay",-3.2333333333333334,-79.26666666666667
"Cordero Palacios","Azuay",-3.0166666666666666,-78.78333333333333
"Corona","Los Ríos",-1.6333333333333333,-79.5
"Corona","Guayas",-1.95,-79.91666666666667
"Coronel Carlos Concha Torres","Esmeraldas",0.7166666666666667,-79.68333333333334
"Coronel Lorenzo Garaicoa","Guayas",-2.05,-79.43333333333334
"Coronel Marcelino Mariduena","Guayas",-2.2,-79.41666666666667
"Corono","Manabí",-0.75,-80.43333333333334
"Corozal","Los Ríos",-1.6666666666666665,-79.51666666666667
"Corozos","Guayas",-1.7666666666666666,-79.95
"Corral del Senor","Loja",-4.15,-79.98333333333333
"Corral Guayco","Azuay",-3.15,-79.2
"Corral Pamba","Zamora-Chinchipe",-3.5733333333333333,-78.96027777777778
"Corralito","Guayas",-2.716666666666667,-79.95
"Corralito","El Oro",-3.35,-79.91666666666667
"Corralito","Guayas",-2.9333333333333336,-79.93333333333334
"Corralpamba","Azuay",-2.8333333333333335,-78.78333333333333
"Correa Urcu","Cañar",-2.55,-78.93333333333334
"Corregidor","Loja",-4.366666666666666,-80.3
"Corriente","Esmeraldas",0.5,-79.96666666666667
"Cortijo","Pichincha",-0.36666666666666664,-78.46666666666667
"Cosacopte","Azuay",-2.966666666666667,-78.8
"Cosalami","Loja",-4.466666666666667,-79.73333333333333
"Cosanga","Napo",-0.6,-77.86666666666666
"Costa Azul","Napo",-1.1,-77.8
"Costa Rica","El Oro",-3.3333333333333335,-80.25
"Cotacachi","Imbabura",0.3,-78.26666666666667
"Cotacocha","Orellana",-0.75,-75.55
"Cotalo","Tungurahua",-1.4166666666666667,-78.5
"Cotapino","Orellana",-0.7,-77.46666666666667
"Coto Chicta","Orellana",-0.7166666666666667,-75.56666666666666
"Cotocollao","Pichincha",-0.11666666666666667,-78.5
"Cotogchoa","Pichincha",-0.38333333333333336,-78.5
"Cotosaz","Pastaza",-2.033333333333333,-77.5
"Cotundo","Napo",-0.8833333333333333,-77.8
"Cristal","Azuay",-3.1333333333333333,-79.23333333333333
"Cristobal Colon","Carchi",0.6166666666666667,-77.8
"Crucita","Manabí",-0.8666666666666667,-80.53333333333333
"Cruz Chicta","Napo",-0.8,-77.2
"Cruz de Guanabano","Guayas",-1.7333333333333334,-80.38333333333334
"Cruz del Huerto","Loja",-4.416666666666667,-79.85
"Cruz Maria","Azuay",-2.7666666666666666,-79.48333333333333
"Cruzloma","Azuay",-2.9166666666666665,-78.96666666666667
"Cruzloma","Azuay",-2.966666666666667,-78.76666666666667
"Cruzloma","Azuay",-3.1666666666666665,-79.25
"Cruzpamba","Loja",-4.166666666666667,-80.01666666666667
"Cruzpamba","Azuay",-2.8,-79.46666666666667
"Cuajara","Imbabura",0.65,-78.16666666666667
"Cuambo","Loja",-4.583333333333333,-79.45
"Cuambo","Imbabura",0.5833333333333334,-78.16666666666667
"Cuarpanche","Azuay",-2.8,-79.01666666666667
"Cuarteguro","El Oro",-3.466666666666667,-79.51666666666667
"Cuasha","Pastaza",-1.8833333333333333,-77.8
"Cuatro Esquinas","Chimborazo",-1.5666666666666667,-78.73333333333333
"Cuatro Hermanas","Guayas",-2.1666666666666665,-79.93333333333334
"Cube","Esmeraldas",0.5833333333333334,-79.63333333333334
"Cubijies","Chimborazo",-1.65,-78.58333333333333
"Cubillin","Chimborazo",-1.8333333333333335,-78.41666666666667
"Cuchicorral","Loja",-4.583333333333333,-79.43333333333334
"Cuchil","Azuay",-2.9166666666666665,-78.75
"Cuchilla Alta","El Oro",-3.6666666666666665,-79.76666666666667
"Cuchiloma","Azuay",-3.15,-79.21666666666667
"Cuchipamba","Azuay",-3.05,-78.78333333333333
"Cuchipirca","Azuay",-3.1333333333333333,-79.15
"Cuchipirca","Azuay",-3.4333333333333336,-79.11666666666666
"Cuchucun","Cañar",-2.55,-78.93333333333334
"Cucuy","Manabí",-0.45,-80.11666666666666
"Cuellaje Alto","Esmeraldas",0.5166666666666667,-78.83333333333333
"Cuembi","Sucumbios",0.36666666666666664,-76.41666666666667
"Cuenca","Azuay",-2.8833333333333333,-78.98333333333333
"Cuipamba","Loja",-3.65,-79.26666666666667
"Cuitum","Cañar",-2.6833333333333336,-78.9
"Culantropamba","Pichincha",0.05,-78.71666666666667
"Culasti","Azuay",-3.15,-79.0
"Culcul","Azuay",-2.85,-78.76666666666667
"Culebrillas","Azuay",-2.783333333333333,-78.66666666666667
"Culqui","Azuay",-2.8833333333333333,-79.01666666666667
"Culticay","Azuay",-2.8,-78.76666666666667
"Cumanda","Morona-Santiago",-1.45,-78.13333333333334
"Cumando","Cañar",-2.216666666666667,-79.11666666666666
"Cumay Alto","Zamora-Chinchipe",-4.022777777777778,-78.82388888888889
"Cumbaratza","Zamora-Chinchipe",-3.9905555555555554,-78.86305555555555
"Cumbaya","Pichincha",-0.2,-78.43333333333334
"Cumbe","Azuay",-3.0833333333333335,-79.01666666666667
"Cuncate","Cañar",-2.6166666666666667,-78.65
"Cunchibamba","Tungurahua",-1.1333333333333333,-78.58333333333333
"Cunucu","Pichincha",-0.03333333333333333,-78.85
"Cunucyacu","Tungurahua",-1.3333333333333333,-78.78333333333333
"Cuquiva","Esmeraldas",0.7666666666666667,-79.55
"Curacaca","Zamora-Chinchipe",-3.7694444444444444,-78.8938888888889
"Curaray","Pastaza",-1.3666666666666667,-76.95
"Curi Tarqui","Azuay",-2.8666666666666667,-78.91666666666667
"Curiachi","Loja",-4.05,-80.11666666666666
"Curichanga","Loja",-4.333333333333333,-79.85
"Curiloma","Azuay",-3.1333333333333333,-79.2
"Curin","Azuay",-3.066666666666667,-78.78333333333333
"Curiquingue","Guayas",-1.7666666666666666,-79.75
"Curitroje","Loja",-4.083333333333333,-79.21666666666667
"Curtincapa","El Oro",-3.7333333333333334,-79.55
"Curusapal","Cañar",-2.8166666666666664,-78.88333333333334
"Cuscudoma","Azuay",-3.5,-79.16666666666667
"Cushca","Tungurahua",-1.1833333333333333,-78.55
"Cushca Chico","Tungurahua",-1.1833333333333333,-78.53333333333333
"Cushcapa","Loja",-3.45,-79.45
"Cushmas","Sucumbios",-0.11666666666666667,-76.66666666666667
"Cusho","Azuay",-3.3333333333333335,-79.25
"Cushuimi","Morona-Santiago",-2.5208333333333335,-77.72944444444444
"Cusiguango","Cotopaxi",-0.8,-78.58333333333333
"Cusua","Tungurahua",-1.3833333333333333,-78.45
"Cusubamba","Cotopaxi",-1.0666666666666667,-78.7
"Cusuimi","Morona-Santiago",-2.7225,-77.67527777777778
"Cusumasa","Morona-Santiago",-3.0530555555555554,-77.95305555555557
"Cutchil","Azuay",-3.066666666666667,-78.8
"Cutiloma","Azuay",-2.966666666666667,-78.86666666666666
"Cutuglagua","Pichincha",-0.36666666666666664,-78.55
"Cutuntza","Zamora-Chinchipe",-4.031944444444444,-78.87277777777777
"Cuyabeno","Sucumbios",-0.26666666666666666,-75.88333333333334
"Cuypamba","Azuay",-2.7666666666666666,-78.66666666666667
"Cuyuja","Napo",-0.4,-78.0
"Cuzco","Loja",-4.083333333333333,-80.5
"Dacte","Azuay",-3.066666666666667,-78.76666666666667
"Daligshi","El Oro",-3.3833333333333333,-79.53333333333333
"Dandan","Azuay",-3.3,-79.35
"Daniel Cordova Toral","Azuay",-2.85,-78.75
"Dashino","Sucumbios",-0.03333333333333333,-77.33333333333333
"Data de Posorja","Guayas",-2.716666666666667,-80.28333333333333
"Data de Villamil","Guayas",-2.716666666666667,-80.33333333333333
"Daular","Guayas",-2.3166666666666664,-80.1
"Daule","Guayas",-1.8666666666666667,-79.93333333333334
"Daule","Esmeraldas",0.4,-80.0
"Davalos","Orellana",-0.8833333333333333,-75.4
"Dean Alto","Pichincha",-0.31666666666666665,-78.48333333333333
"Dean Bajo","Pichincha",-0.3,-78.48333333333333
"Del Salitre","Pichincha",-0.6166666666666667,-78.36666666666666
"Deleg","Cañar",-2.7666666666666666,-78.9
"Delegsol","Azuay",-3.0,-78.75
"Deletre","Cañar",-2.55,-78.63333333333334
"Delfina","Guayas",-1.9833333333333334,-79.88333333333334
"Delia","Guayas",-2.2333333333333334,-79.8
"Delicia","Guayas",-1.9166666666666665,-79.78333333333333
"Delicia","Guayas",-1.7833333333333332,-79.85
"Delicia","Guayas",-1.7666666666666666,-79.81666666666666
"Delicias","Los Ríos",-1.6833333333333333,-79.76666666666667
"Delta","Orellana",-0.5833333333333334,-75.85
"Demecia","Guayas",-1.3333333333333333,-79.86666666666666
"Derna","Orellana",-0.45,-76.73333333333333
"Descanso","Guayas",-1.8666666666666667,-79.78333333333333
"Descanso","Orellana",-0.43333333333333335,-76.78333333333333
"Descanso de Sucre","Azuay",-3.1,-79.06666666666666
"Deseo","Guayas",-1.7666666666666666,-79.81666666666666
"Destacamento Tundayme","Zamora-Chinchipe",-3.574444444444444,-78.47694444444444
"Diaz","Guayas",-2.216666666666667,-80.3
"Diaz de Pineda","Napo",-0.2833333333333333,-77.71666666666667
"Diez de Agosto","Manabí",-0.15,-80.08333333333333
"Diez de Agosto","Pastaza",-1.45,-77.9
"Diez de Agosto","Manabí",-1.2666666666666666,-80.38333333333334
"Dios Pena","Sucumbios",0.24583333333333335,-76.81833333333333
"Dircay","Azuay",-3.3,-79.03333333333333
"Dizha","Azuay",-2.9833333333333334,-79.9
"Doblones","Manabí",-0.5833333333333334,-79.66666666666667
"Doce de Diciembre","Loja",-4.066666666666666,-80.08333333333333
"Doctor Miguel Egas","Imbabura",0.25,-78.23333333333333
"Domageo","El Oro",-3.35,-79.53333333333333
"Dominguillo","Loja",-4.166666666666667,-80.01666666666667
"Don Juan","Manabí",-0.15,-80.23333333333333
"Don Julo","Azuay",-2.7333333333333334,-78.65
"Don Lucas","Guayas",-2.25,-80.3
"Don Pancho","Guayas",-1.7833333333333332,-80.75
"Don Tomas","Pastaza",-2.033333333333333,-77.05
"Dos Bocas","El Oro",-3.55,-80.23333333333333
"Dos Bocas","El Oro",-3.45,-80.03333333333333
"Dos Bocas","Guayas",-2.3,-80.5
"Dos Cruces","Manabí",-1.1583333333333332,-80.85
"Dos Cuevas","Azuay",-2.8,-79.21666666666667
"Dos Hermanas","Guayas",-1.7666666666666666,-79.9
"Dos Mangas","Guayas",-1.825,-80.69166666666668
"Dos Rios","Guayas",-1.75,-80.65
"Dubliay","Cañar",-2.8,-78.91666666666667
"Ducoguayco","Azuay",-3.15,-79.21666666666667
"Dueta","Azuay",-3.283333333333333,-79.5
"Dugdug","Azuay",-2.75,-78.7
"Dunillin","Azuay",-3.3833333333333333,-79.15
"Duran","Guayas",-2.2,-79.83333333333333
"Durazno","Azuay",-3.033333333333333,-79.13333333333334
"Dureno","Sucumbios",0.044444444444444446,-76.69722222222222
"Echeandia","Bolívar",-1.4333333333333333,-79.26666666666667
"Eduardo","Guayas",-2.1666666666666665,-79.7
"Ejido Norte","Carchi",0.8333333333333334,-77.66666666666667
"El Achiote","Los Ríos",-0.7666666666666667,-79.4
"El Achiote","Esmeraldas",0.9666666666666667,-79.45555555555556
"El Aguacate","Manabí",-1.45,-80.33333333333333
"El Aguan","Azuay",-2.9,-78.73333333333333
"El Alcote","Azuay",-2.95,-78.86666666666666
"El Alcote","Azuay",-2.9333333333333336,-78.86666666666666
"El Altar","Chimborazo",-1.5166666666666666,-78.5
"El Altar","Azuay",-2.9333333333333336,-78.9
"El Alto","Esmeraldas",1.05,-79.42500000000001
"El Anegado","Manabí",-1.4666666666666668,-80.53333333333333
"El Angel","Carchi",0.6166666666666667,-77.93333333333334
"El Apretadero","Loja",-4.05,-79.86666666666666
"El Arenal","Azuay",-2.8666666666666667,-78.83333333333333
"El Arenal","Morona-Santiago",-3.3963888888888887,-78.47972222222222
"El Arenal","Los Ríos",-1.8333333333333335,-79.7
"El Arenal","Bolívar",-1.4666666666666668,-78.88333333333334
"El Arroyo","Manabí",-0.9833333333333333,-80.66666666666667
"El Bajo","Guayas",-1.4666666666666668,-79.86666666666666
"El Baldaco","Guayas",-1.9166666666666665,-79.93333333333334
"El Barranco","Cañar",-2.55,-79.31666666666666
"El Barrial","Loja",-3.9833333333333334,-79.6
"El Barro","Manabí",-0.8833333333333333,-80.06666666666666
"El Batan","Guayas",-1.1666666666666667,-79.91666666666667
"El Bonete","Cañar",-2.533333333333333,-79.35
"El Bosque","El Oro",-3.65,-79.63333333333334
"El Brujo","Esmeraldas",1.4508333333333332,-78.87722222222222
"El Bunque","El Oro",-3.75,-80.03333333333333
"El Burro","Azuay",-3.216666666666667,-79.13333333333334
"El Cabo","Azuay",-2.85,-78.78333333333333
"El Cacao","Manabí",-1.35,-80.08333333333333
"El Cajampe","Guayas",-2.8,-79.75
"El Cajon","Pichincha",-0.05,-78.26666666666667
"El Cajon","Loja",-4.183333333333334,-80.0
"El Callejon","Manabí",-1.2833333333333332,-80.1
"El Calvario","El Oro",-3.6833333333333336,-79.63333333333334
"El Cambio","El Oro",-3.3,-79.9
"El Camino","Esmeraldas",0.9666666666666667,-79.50833333333334
"El Canaveral","Manabí",0.06666666666666667,-79.8
"El Capricho","Pastaza",-1.2833333333333332,-77.46666666666667
"El Carmelo","Guayas",-2.95,-79.9
"El Carmelo","Carchi",0.6666666666666666,-77.63333333333334
"El Carmelo","Zamora-Chinchipe",-3.8191666666666664,-78.85638888888889
"El Carmen","Azuay",-2.9166666666666665,-78.86666666666666
"El Carmen","Loja",-4.216666666666667,-79.23333333333333
"El Carmen","Pichincha",-0.2833333333333333,-78.78333333333333
"El Carmen","Manabí",-0.26666666666666666,-79.43333333333334
"El Carmen","Guayas",-1.3166666666666667,-80.01666666666667
"El Carmen","Esmeraldas",0.9166666666666666,-79.41666666666667
"El Carmen","Azuay",-2.966666666666667,-78.96666666666667
"El Carmen","Guayas",-1.65,-79.86666666666666
"El Carmen","Guayas",-2.2,-79.61666666666666
"El Carmen","Guayas",-2.75,-79.7
"El Carmen","Los Ríos",-1.4333333333333333,-79.61666666666666
"El Carmen","Pichincha",-0.43333333333333335,-78.36666666666666
"El Carrizal","Carchi",0.7833333333333333,-77.7
"El Cauchal","Esmeraldas",1.4058333333333333,-78.88472222222222
"El Cautivo","Guayas",-2.2,-80.9
"El Cedral","Pichincha",-0.43333333333333335,-78.68333333333334
"El Cedro","Zamora-Chinchipe",-3.6805555555555554,-78.54444444444444
"El Cedro","Loja",-3.95,-79.48333333333333
"El Censo","Tungurahua",-1.1,-78.46666666666667
"El Cercado","Manabí",-0.9527777777777777,-80.75416666666666
"El Cerrito","Manabí",-0.9166666666666666,-80.51666666666667
"El Cerrito","Guayas",-1.55,-79.9
"El Cerro","Manabí",-1.0833333333333333,-80.56666666666666
"El Chaco","Napo",-0.3333333333333333,-77.81666666666666
"El Chamico","Zamora-Chinchipe",-3.9469444444444446,-78.82083333333333
"El Chauchal","Esmeraldas",1.4252777777777779,-78.88111111111111
"El Chaupi","Tungurahua",-1.1,-78.51666666666667
"El Chico","Carchi",0.8166666666666667,-77.71666666666667
"El Chorro","Zamora-Chinchipe",-4.9,-79.1
"El Chorro","Esmeraldas",1.0188888888888887,-78.98833333333333
"El Cienego","Loja",-4.016666666666667,-80.03333333333333
"El Cisne","Zamora-Chinchipe",-3.642777777777778,-78.90472222222223
"El Cisne","Loja",-3.8666666666666667,-79.41666666666667
"El Coco","Loja",-4.4,-79.88333333333334
"El Conchero","Guayas",-3.0,-79.86666666666666
"El Condor","Tungurahua",-1.1666666666666667,-78.5
"El Condor","Los Ríos",-1.3833333333333333,-79.83333333333333
"El Conejo","Sucumbios",0.23777777777777778,-76.90666666666667
"El Congo","Guayas",-2.7666666666666666,-79.75
"El Congo","Loja",-4.016666666666667,-79.93333333333334
"El Coposo","Loja",-4.05,-79.91666666666667
"El Corazon","Cotopaxi",-1.1333333333333333,-79.06666666666666
"El Coroso","Guayas",-2.033333333333333,-80.48333333333333
"El Cruce","Guayas",-1.9,-79.85
"El Cruce","El Oro",-3.3833333333333333,-80.31666666666666
"El Cucho","El Oro",-3.5833333333333335,-79.85
"El Deleite","Guayas",-2.0166666666666666,-79.75
"El Deleite","Guayas",-2.066666666666667,-79.65
"El Derrumbo","Azuay",-2.783333333333333,-78.96666666666667
"El Descanso","Tungurahua",-1.4166666666666667,-78.5
"El Descanso","Azuay",-2.8333333333333335,-78.78333333333333
"El Deseo","Guayas",-2.216666666666667,-79.61666666666666
"El Deseo","Guayas",-1.7666666666666666,-80.01666666666667
"El Deshecho","Guayas",-1.35,-80.03333333333333
"El Destino","Orellana",-0.85,-75.46666666666667
"El Destino","Guayas",-1.0333333333333334,-79.63333333333334
"El Dorado","Sucumbios",0.10055555555555556,-76.89
"El Dorado","Zamora-Chinchipe",-3.9305555555555554,-78.69722222222222
"El Dorado de Cascales","Sucumbios",0.08333333333333333,-77.21000000000001
"El Dorado de Cascales","Sucumbios",0.06666666666666667,-77.21666666666667
"El Eden","Orellana",-0.48333333333333334,-76.05
"El Empalme","Loja",-4.133333333333334,-79.83333333333333
"El Eno","Sucumbios",-0.06666666666666667,-76.88333333333334
"El Esfuerzo","Pichincha",-0.4,-79.26666666666667
"El Faigue","Loja",-4.166666666666667,-80.03333333333333
"El Goaltal","Carchi",0.8,-78.16666666666667
"El Golfo","Guayas",-1.7666666666666666,-79.8
"El Guabital","Guayas",-2.7666666666666666,-79.7
"El Guabo","Loja",-4.2,-80.2
"El Guabo","Guayas",-2.65,-79.71666666666667
"El Guabo","Loja",-4.183333333333334,-80.38333333333334
"El Guachal","Esmeraldas",1.1933333333333334,-78.92416666666666
"El Guando","Loja",-4.1,-80.18333333333334
"El Guayan","Azuay",-2.9166666666666665,-78.88333333333334
"El Guineo","Guayas",-1.2166666666666668,-79.9
"El Guineo","Loja",-4.183333333333334,-80.01666666666667
"El Hondon","Loja",-4.0,-80.05
"El Huasimo","Loja",-4.433333333333334,-80.31666666666666
"El Huato","Loja",-4.1,-79.65
"El Huato","Loja",-3.9833333333333334,-79.5
"El Humedo","Loja",-4.033333333333333,-79.51666666666667
"El Ingenio","Loja",-4.416666666666667,-79.35
"El Ingenio","Zamora-Chinchipe",-3.655,-78.96944444444445
"El Ingenio","El Oro",-3.7,-79.93333333333334
"El Junco","Manabí",-0.8166666666666667,-80.31666666666666
"El Kiosco","Azuay",-3.3,-79.28333333333333
"El Limbo","Guayas",-2.716666666666667,-80.13333333333334
"El Limo","Loja",-3.9833333333333334,-80.15
"El Limon","Loja",-4.383333333333334,-79.9
"El Limon","El Oro",-3.35,-79.7
"El Llano","Azuay",-2.9,-78.78333333333333
"El Loro","Loja",-4.333333333333333,-80.43333333333334
"El Lucero","Loja",-4.4,-79.46666666666667
"El Manglesito","Guayas",-2.7333333333333334,-79.73333333333333
"El Mango","Loja",-4.383333333333334,-80.36666666666666
"El Mate","Guayas",-1.7833333333333332,-80.01666666666667
"El Mate","Manabí",-0.6666666666666666,-80.05
"El Mate","Guayas",-2.466666666666667,-80.26666666666667
"El Mirador","Pichincha",-0.5666666666666667,-79.16666666666667
"El Mirador","Guayas",-2.9833333333333334,-79.76666666666667
"El Monje","Loja",-4.1,-79.2
"El Mono","Manabí",-0.35,-79.7
"El Monte","Manabí",-0.6666666666666666,-80.06666666666666
"El Morro","Guayas",-2.6655555555555557,-80.37638888888888
"El Muerto","El Oro",-3.3,-79.86666666666666
"El Muerto","Loja",-4.183333333333334,-80.1
"El Mundo","Tungurahua",-1.2833333333333332,-78.48333333333333
"El Naque","Loja",-4.2,-79.21666666666667
"El Naranjo","Loja",-4.216666666666667,-80.08333333333333
"El Naranjo","Loja",-4.016666666666667,-79.6
"El Naranjo","Guayas",-1.9166666666666665,-79.9
"El Nato","Guayas",-1.9833333333333334,-80.01666666666667
"El Negro","El Oro",-3.6833333333333336,-79.93333333333334
"El Olimpo","Cañar",-2.3166666666666664,-79.03333333333333
"El Olivo","Imbabura",0.36666666666666664,-78.1
"El Organo","Loja",-4.133333333333334,-80.16666666666667
"El Pache","El Oro",-3.716666666666667,-79.66666666666667
"El Palmar","Cañar",-2.533333333333333,-79.33333333333333
"El Palmar","Tungurahua",-1.3833333333333333,-78.28333333333333
"El Pan","Azuay",-2.7666666666666666,-78.65
"El Pangui","Zamora-Chinchipe",-3.625,-78.58694444444444
"El Paraiso","El Oro",-3.15,-79.73333333333333
"El Paraiso","Manabí",-0.31666666666666665,-80.36666666666666
"El Paraiso","Manabí",-0.23333333333333334,-80.35
"El Patrimonio","Guayas",-1.8666666666666667,-79.86666666666666
"El Petrillo","Guayas",-1.95,-80.0
"El Pindal","Zamora-Chinchipe",-3.7577777777777777,-78.60249999999999
"El Pindo","El Oro",-3.8,-80.1
"El Pindo","Loja",-4.133333333333334,-80.2
"El Pital","Manabí",-1.5722222222222222,-80.78333333333333
"El Pitayo","Loja",-4.316666666666666,-80.25
"El Placer","El Oro",-3.6166666666666667,-79.81666666666666
"El Placer","Guayas",-2.8166666666666664,-79.98333333333333
"El Placer","Los Ríos",-1.3833333333333333,-79.8
"El Placer","Orellana",-0.9333333333333333,-75.21666666666667
"El Plateado","Zamora-Chinchipe",-3.661388888888889,-78.77805555555555
"El Plateado","Loja",-3.9833333333333334,-79.25
"El Playon","Guayas",-2.95,-79.86666666666666
"El Playon de San Francisco","Sucumbios",0.6333333333333333,-77.61666666666666
"El Polo","Manabí",-1.1666666666666667,-80.36666666666666
"El Porton","Azuay",-3.2666666666666666,-79.26666666666667
"El Porvenir","Sucumbios",0.15083333333333332,-76.96694444444445
"El Porvenir","Loja",-4.15,-79.21666666666667
"El Porvenir","Guayas",-1.2333333333333334,-79.91666666666667
"El Porvenir","Manabí",0.13333333333333333,-79.91666666666667
"El Porvenir","Pichincha",0.1,-78.75
"El Porvenir","Orellana",-0.5,-76.4
"El Porvenir","Esmeraldas",1.2047222222222222,-78.91444444444446
"El Porvenir","Pichincha",-0.26666666666666666,-78.53333333333333
"El Porvenir","Pichincha",-0.25,-79.13333333333334
"El Prado","Guayas",-1.7166666666666668,-79.88333333333334
"El Prado","Pichincha",-0.45,-78.35
"El Presidente","Guayas",-2.7,-80.06666666666666
"El Progreso","Zamora-Chinchipe",-3.9016666666666664,-78.85972222222222
"El Progreso","Azuay",-3.3333333333333335,-79.2
"El Progreso","Galápagos",-0.898611111111111,-89.54722222222222
"El Progreso","Guayas",-1.9833333333333334,-79.45
"El Progreso","Esmeraldas",1.1575,-78.89222222222223
"El Pueblito","Manabí",-0.8166666666666667,-80.5
"El Puente","Loja",-3.9333333333333336,-80.08333333333333
"El Puerto","Manabí",0.21666666666666667,-79.91666666666667
"El Pun","Carchi",0.6666666666666666,-77.61666666666666
"El Rancho","Pichincha",-0.45,-78.38333333333334
"El Real","Guayas",-2.3833333333333333,-80.73333333333333
"El Recreo","Loja",-4.033333333333333,-79.2
"El Recreo","Guayas",-2.6,-79.61666666666666
"El Recreo","Morona-Santiago",-3.0083333333333333,-78.43305555555555
"El Recreo","Guayas",-2.1666666666666665,-79.81666666666666
"El Recreo","Loja",-3.3333333333333335,-79.36666666666666
"El Recreo","Manabí",-0.48333333333333334,-80.45
"El Recreo","Guayas",-1.7666666666666666,-79.9
"El Recreo","Guayas",-2.1333333333333333,-79.8
"El Resbalon","Manabí",-0.9833333333333333,-80.41666666666667
"El Retiro","Orellana",-0.4666666666666667,-76.3
"El Rodeo","Cañar",-2.466666666666667,-79.16666666666667
"El Rosal","Tungurahua",-1.3666666666666667,-78.63333333333334
"El Rosal","Carchi",0.8166666666666667,-77.7
"El Rosario","Tungurahua",-1.3,-78.56666666666666
"El Rosario","Guayas",-2.0166666666666666,-79.81666666666666
"El Rosario","Azuay",-3.2666666666666666,-79.26666666666667
"El Rosario","Loja",-3.783333333333333,-79.6
"El Rosario","Manabí",-0.38333333333333336,-80.46666666666667
"El Salado","Zamora-Chinchipe",-3.6441666666666666,-78.92361111111111
"El Salto","Esmeraldas",0.9888888888888888,-79.5
"El Salto","Loja",-4.25,-80.36666666666666
"El Salto","Guayas",-1.2166666666666668,-79.9
"El Salto","Pichincha",-0.43333333333333335,-78.41666666666667
"El Salto","Esmeraldas",1.05,-79.38333333333334
"El Salto","Cañar",-2.65,-78.93333333333334
"El Sauce","Loja",-4.183333333333334,-80.36666666666666
"El Sauce","Loja",-4.116666666666666,-80.43333333333334
"El Sauce","Loja",-4.416666666666667,-80.45
"El Sauce","Loja",-4.066666666666666,-79.86666666666666
"El Sauce","Los Ríos",-1.4333333333333333,-79.61666666666666
"El Sauce","Azuay",-3.2,-79.18333333333334
"El Sauce","Azuay",-3.216666666666667,-79.26666666666667
"El Sauce","El Oro",-3.5166666666666666,-80.05
"El Sauco","Loja",-4.283333333333333,-80.05
"El Sesteadero","Loja",-4.066666666666666,-79.88333333333334
"El Shugsho","Loja",-4.166666666666667,-79.96666666666667
"El Siete","Guayas",-2.1666666666666665,-79.65
"El Suche","Guayas",-1.4,-79.86666666666666
"El Suspiro","Guayas",-1.9,-80.65
"El Tablon","Loja",-3.4833333333333334,-79.16666666666667
"El Tablon","El Oro",-3.716666666666667,-79.58333333333333
"El Tablon","Tungurahua",-1.1333333333333333,-78.61666666666666
"El Tabor","Guayas",-2.75,-79.9
"El Taco","Los Ríos",-1.3833333333333333,-79.6
"El Tambo","Cañar",-2.5,-78.9
"El Tambo","El Oro",-3.7666666666666666,-80.03333333333333
"El Tambo","Loja",-4.0725,-79.30833333333334
"El Tesoro","Guayas",-1.7666666666666666,-79.9
"El Tesoro","Guayas",-1.9,-79.55
"El Tiburon","Guayas",-2.197222222222222,-79.98333333333333
"El Tigre","Los Ríos",-1.8666666666666667,-79.31666666666666
"El Tingo","Pichincha",-0.2833333333333333,-78.43333333333334
"El Tingo","Chimborazo",-1.9666666666666668,-78.6
"El Tocte","Azuay",-2.8833333333333333,-78.86666666666666
"El Toldo","Loja",-4.366666666666666,-79.51666666666667
"El Toldo","Loja",-4.410555555555556,-79.55083333333333
"El Tormento","Guayas",-1.8666666666666667,-79.86666666666666
"El Toro","El Oro",-3.783333333333333,-80.08333333333333
"El Trapiche","Pichincha",-0.2,-78.43333333333334
"El Triunfo","Guayas",-1.9333333333333333,-79.96666666666667
"El Triunfo","Tungurahua",-1.3,-78.4
"El Triunfo","Guayas",-2.3166666666666664,-80.4
"El Triunfo","Los Ríos",-1.5166666666666666,-79.7
"El Verde","Pichincha",-0.03333333333333333,-78.03333333333333
"El Verde","Azuay",-3.05,-78.98333333333333
"El Viento","Esmeraldas",1.3663888888888889,-78.83583333333333
"El Zapote Corralito","Guayas",-2.716666666666667,-79.95
"Eldeli","El Oro",-3.4333333333333336,-80.01666666666667
"Elena","Los Ríos",-1.8833333333333333,-79.65
"Eloy Alfaro","Orellana",-0.85,-75.43333333333334
"Eloy Alfaro","Manabí",-0.4,-80.08333333333333
"Elsa Leonor","Guayas",-1.9833333333333334,-79.8
"Elva","Orellana",-0.8333333333333334,-75.48333333333333
"Elvira","Los Ríos",-1.8666666666666667,-79.53333333333333
"Elvira","Los Ríos",-1.8333333333333335,-79.51666666666667
"Elvira","Guayas",-2.0833333333333335,-79.7
"Elvira","Los Ríos",-1.4666666666666668,-79.45
"Elvira","Guayas",-1.8,-80.0
"Embarcadero","Morona-Santiago",-2.8447222222222224,-77.95333333333333
"Emilia","Los Ríos",-1.5333333333333332,-79.41666666666667
"Emilio Maria Teran","Tungurahua",-1.2166666666666668,-78.51666666666667
"Emperatriz","Guayas",-1.9833333333333334,-79.4
"Emperatriz","Azuay",-3.1,-79.01666666666667
"Enen","Cañar",-2.533333333333333,-79.23333333333333
"Engabao","Guayas",-2.5833333333333335,-80.48333333333333
"Engullima","Guayas",-2.35,-80.66666666666667
"Engunga","Guayas",-2.466666666666667,-80.55
"Enramada","Azuay",-3.2666666666666666,-79.66666666666667
"Enriqueta","Guayas",-1.45,-79.91666666666667
"Ensenada","Guayas",-2.3,-79.78333333333333
"Entrada","Guayas",-1.7166666666666668,-80.8
"Entre Rios","Guayas",-2.3,-80.81666666666666
"Entzacua","Morona-Santiago",-2.533333333333333,-77.7
"Envidia","Guayas",-1.8666666666666667,-79.81666666666666
"Envidia","Guayas",-1.8,-79.86666666666666
"Envidia","Guayas",-1.7666666666666666,-79.76666666666667
"Envidia","Guayas",-1.75,-79.8
"Envidia","Guayas",-2.0166666666666666,-79.96666666666667
"Envidiable","Guayas",-1.9,-79.78333333333333
"Ermelinda","Guayas",-1.9166666666666665,-79.71666666666667
"Erminia","Guayas",-1.9,-79.76666666666667
"Escalera","Pichincha",0.0,-78.93333333333334
"Escaleras","Azuay",-3.033333333333333,-79.06666666666666
"Escaleras","Azuay",-3.5166666666666666,-79.18333333333334
"Escalon","Manabí",-0.2833333333333333,-80.01666666666667
"Esmeraldas","Guayas",-1.8666666666666667,-79.8
"Esmeraldas","Esmeraldas",0.9591666666666666,-79.6538888888889
"Esmeraldas","Azuay",-3.3333333333333335,-79.4
"Esmeraldas Libre","Sucumbios",0.0775,-76.88361111111112
"Espana","Guayas",-1.8666666666666667,-79.76666666666667
"Esperanza","Guayas",-1.5833333333333335,-79.98333333333333
"Esperanza","Guayas",-1.8666666666666667,-79.76666666666667
"Esperanza","Guayas",-2.2333333333333334,-80.28333333333333
"Esperanza","Los Ríos",-1.95,-79.36666666666666
"Esperanza","Guayas",-1.35,-79.9
"Esperanza","Los Ríos",-1.5333333333333332,-79.78333333333333
"Espinal","Guayas",-2.6666666666666665,-80.05
"Estacada","Guayas",-1.85,-80.28333333333333
"Estacion de Cumbe","Azuay",-3.05,-79.05
"Estancia","Manabí",-1.1666666666666667,-80.4
"Estancia Vieja","Guayas",-2.066666666666667,-79.88333333333334
"Estancilla","Manabí",-0.8166666666666667,-80.2
"Estero Cobina","Guayas",-2.261111111111111,-79.86388888888888
"Estero de Boca","Guayas",-2.783333333333333,-80.23333333333333
"Estero Lagarto","Guayas",-1.7333333333333334,-79.91666666666667
"Estrella","Guayas",-1.8333333333333335,-79.8
"Estrella del Oriente","Sucumbios",0.07666666666666666,-76.87888888888888
"Estrella Yacu","Orellana",-0.43333333333333335,-77.11666666666666
"Etelvina","Guayas",-1.5833333333333335,-80.01666666666667
"Etsa","Morona-Santiago",-3.0638888888888887,-77.94472222222223
"Eufemia","Guayas",-2.2333333333333334,-80.06666666666666
"Eugenia","Guayas",-1.8,-79.78333333333333
"Eugenia","Guayas",-2.1,-79.71666666666667
"Eugenia","Guayas",-2.183333333333333,-79.6
"Eugenio Espejo","Imbabura",0.21666666666666667,-78.25
"Fabiola","Guayas",-1.5833333333333335,-79.95
"Facundo Vela","Bolívar",-1.2166666666666668,-79.08333333333333
"Faical","El Oro",-3.7,-80.2
"Fasana","Azuay",-3.1666666666666665,-79.23333333333333
"Fatima","Morona-Santiago",-3.479444444444445,-78.4925
"Fatima","Pastaza",-1.4333333333333333,-77.98333333333333
"Febres Cordero","Guayas",-1.9333333333333333,-80.61666666666666
"Febres Cordero","Los Ríos",-1.95,-79.3
"Feijo","El Oro",-3.6333333333333333,-79.91666666666667
"Felicidad","Los Ríos",-1.6166666666666667,-79.86666666666666
"Felton","Pastaza",-1.9833333333333334,-77.5
"Fenix","Orellana",-0.9,-75.41666666666667
"Fernandez Salvador","Carchi",0.6,-77.76666666666667
"Ficoa","Tungurahua",-1.2333333333333334,-78.63333333333334
"Filan Banco","Manabí",-2.225,-80.9
"Fili","Azuay",-3.066666666666667,-79.03333333333333
"Firme","Guayas",-1.75,-79.8
"Flandes","Tungurahua",-1.3333333333333333,-78.46666666666667
"Flavio Alfaro","Manabí",-0.4,-79.91666666666667
"Flor Amalia","Guayas",-1.9,-79.71666666666667
"Flor de Bosque","Morona-Santiago",-3.03,-78.4625
"Flor de Maria","Guayas",-1.8166666666666667,-80.0
"Flor de Maria","Guayas",-1.8833333333333333,-79.78333333333333
"Flor de Oro","El Oro",-3.2666666666666666,-79.95
"Flora","Guayas",-1.8666666666666667,-79.81666666666666
"Flora","Guayas",-1.8666666666666667,-79.75
"Florencia","Guayas",-2.2,-79.85
"Florencia","Orellana",-0.8833333333333333,-75.45
"Flores","Los Ríos",-1.55,-79.71666666666667
"Flores","Chimborazo",-1.8,-78.63333333333334
"Florida","Guayas",-1.7333333333333334,-79.81666666666666
"Fogones","Loja",-3.8666666666666667,-80.01666666666667
"Fortuna","Guayas",-1.4666666666666668,-80.08333333333333
"Fortuna","Guayas",-1.5333333333333332,-79.9
"Fortuna","Guayas",-1.7333333333333334,-79.81666666666666
"Fortuna","Guayas",-1.8333333333333335,-79.81666666666666
"Fortuna","Los Ríos",-1.8833333333333333,-79.61666666666666
"Frances Urco","Azuay",-3.05,-79.08333333333333
"Francisco Aro","Guayas",-1.8,-79.88333333333334
"Frescoguayco","Azuay",-3.1,-79.08333333333333
"Friedo","Galápagos",-1.2666666666666666,-90.38333333333334
"G. Munoz","Guayas",-2.216666666666667,-80.31666666666666
"Gacela","Guayas",-1.35,-79.91666666666667
"Gala","Guayas",-2.966666666666667,-79.76666666666667
"Gala de Arriba","Guayas",-3.0166666666666666,-79.71666666666667
"Galapagos","Imbabura",0.35,-78.73333333333333
"Galera","Esmeraldas",0.8166666666666667,-80.05
"Gallardo","Guayas",-2.225,-79.86944444444444
"Gallata","Azuay",-3.0,-79.56666666666666
"Gallinazo","Los Ríos",-1.7,-79.6
"Gallocantana","El Oro",-3.3666666666666667,-79.53333333333333
"Galope","Esmeraldas",1.0,-79.5
"Galte","Chimborazo",-1.9833333333333334,-78.76666666666667
"Ganacay","El Oro",-3.3666666666666667,-79.51666666666667
"Ganadel","Azuay",-3.1333333333333333,-79.03333333333333
"Ganalcay","Azuay",-2.8666666666666667,-78.8
"Ganan","Loja",-3.5833333333333335,-79.3
"Ganil","Loja",-3.6,-79.33333333333333
"Ganillac","Azuay",-3.216666666666667,-78.96666666666667
"Ganzhun","Azuay",-2.95,-78.8
"Gapal","Azuay",-2.966666666666667,-78.96666666666667
"Garachamba","Loja",-3.95,-79.66666666666667
"Garaushi","Azuay",-3.0166666666666666,-78.9
"Garcelan","Zamora-Chinchipe",-3.636388888888889,-78.95472222222223
"Garcia Moreno","Carchi",0.5666666666666667,-77.93333333333334
"Garcia Moreno","Imbabura",0.21666666666666667,-78.63333333333334
"Garcia Moreno","Tungurahua",-1.3166666666666667,-78.53333333333333
"Garza","Guayas",-1.8166666666666667,-79.9
"Garza Huachana","Loja",-4.3,-80.23333333333333
"Garza-cocha","Sucumbios",-0.4666666666666667,-75.35
"Garzaguachana","Loja",-4.333333333333333,-80.35
"Gatazo","Guayas",-1.8833333333333333,-79.73333333333333
"Gazar","Guayas",-2.4166666666666665,-79.78333333333333
"General Farfan","Sucumbios",0.2475,-76.87444444444444
"General Leonidas Plaza Gutierrez","Morona-Santiago",-2.966666666666667,-78.41666666666667
"General Morales","Cañar",-2.4,-79.03333333333333
"General Pedro J. Montero","Guayas",-2.2666666666666666,-79.63333333333334
"General Proano","Morona-Santiago",-2.283333333333333,-78.13333333333334
"General Vernaza","Guayas",-1.7666666666666666,-79.78333333333333
"Genova","Pichincha",-0.45,-78.66666666666667
"Gercelan","Loja",-3.466666666666667,-79.4
"Germania","Guayas",-1.55,-79.9
"Germania","Pichincha",-0.7333333333333333,-79.15
"Gigantones","Azuay",-3.216666666666667,-79.25
"Gima","Azuay",-3.2,-78.95
"Giron","Azuay",-3.1666666666666665,-79.13333333333334
"Gloria","Esmeraldas",0.9166666666666666,-79.4
"Gloria","Guayas",-1.8833333333333333,-79.8
"Gloria Maria","Pichincha",-0.26666666666666666,-79.08333333333333
"Gomez Rendon","Guayas",-2.4,-80.36666666666666
"Gongora","Guayas",-2.35,-80.68333333333334
"Gonsapamba","Loja",-4.6,-79.48333333333333
"Gonzalez Suarez","Imbabura",0.18333333333333332,-78.21666666666667
"Gonzalez Suarez","Carchi",0.7833333333333333,-77.85
"Gonzalo Pizarro","Orellana",-0.55,-77.43333333333334
"Gonzalo Pizarro","Sucumbios",0.01611111111111111,-77.37805555555555
"Gonzanama","Loja",-4.25,-79.45
"Gonzol","Chimborazo",-2.25,-78.81666666666666
"Gordeleg","Azuay",-2.95,-78.88333333333334
"Graciela","Guayas",-1.8666666666666667,-80.01666666666667
"Graciosa","Guayas",-1.85,-79.75
"Gramadal","Loja",-4.0,-80.35
"Gramadales","Loja",-4.216666666666667,-80.23333333333333
"Gramatal","Guayas",-2.533333333333333,-79.58333333333333
"Granadilla","Chimborazo",-1.75,-78.76666666666667
"Granadillas","Morona-Santiago",-3.1333333333333333,-78.73333333333333
"Granadillas","Azuay",-3.2,-79.21666666666667
"Granja","Guayas",-2.183333333333333,-79.95
"Guabal","Esmeraldas",0.9666666666666667,-79.5625
"Guabidilla","Azuay",-2.8166666666666664,-79.23333333333333
"Guabiduca","Zamora-Chinchipe",-3.6011111111111114,-78.93111111111112
"Guabillo","El Oro",-3.6,-80.18333333333334
"Guabina","Esmeraldas",1.0952777777777778,-78.77555555555556
"Guabisay","Azuay",-2.9166666666666665,-78.9
"Guabishun","Cañar",-2.8,-78.91666666666667
"Guabitos","Guayas",-1.5666666666666667,-80.08333333333333
"Guablit","Azuay",-2.7666666666666666,-78.68333333333334
"Guabo","Guayas",-1.0166666666666666,-79.61666666666666
"Guabo","El Oro",-3.25,-79.85
"Guabo Playa","El Oro",-3.3166666666666664,-79.81666666666666
"Guachala","Esmeraldas",0.4,-79.4
"Guachalan","Azuay",-2.8833333333333333,-78.75
"Guachanama","Loja",-4.033333333333333,-79.88333333333334
"Guachapala","Azuay",-2.7666666666666666,-78.7
"Guachapeli","Guayas",-1.9333333333333333,-79.73333333333333
"Guachapeli","Los Ríos",-1.65,-79.7
"Guachapeli","Guayas",-1.7833333333333332,-79.8
"Guachum","Azuay",-2.8333333333333335,-78.85
"Guacualsan","Guayas",-2.3166666666666664,-80.68333333333334
"Guadalupe","Tungurahua",-1.35,-78.5
"Guadalupe","Pichincha",-0.26666666666666666,-79.08333333333333
"Guadalupe","Zamora-Chinchipe",-3.843888888888889,-78.8863888888889
"Guadalupe","Los Ríos",-1.6166666666666667,-79.86666666666666
"Guadual","Esmeraldas",0.8,-79.16666666666667
"Guadual","Manabí",0.3333333333333333,-80.0
"Guadual","Imbabura",0.7333333333333333,-78.23333333333333
"Guadual Grande","Cotopaxi",-0.65,-79.08333333333333
"Guagra Plaza","Cañar",-2.7666666666666666,-78.91666666666667
"Guagrin","Azuay",-3.1166666666666667,-79.23333333333333
"Guagua Corral","Azuay",-3.1,-79.56666666666666
"Guagua Tarqui","Azuay",-2.9833333333333334,-79.06666666666666
"Guaguaime","Zamora-Chinchipe",-3.6494444444444443,-78.87666666666667
"Guagualpamba","Azuay",-2.9833333333333334,-78.75
"Guaguarshuma","Azuay",-2.8833333333333333,-78.9
"Guaguayme Alto","Zamora-Chinchipe",-3.904166666666667,-78.88555555555556
"Guaguayme Bajo","Zamora-Chinchipe",-3.9097222222222223,-78.88527777777779
"Guaillabamba","Pichincha",-0.03333333333333333,-78.35
"Guaillabamba","Esmeraldas",0.45,-79.4
"Guaillabamba","Pichincha",-0.06666666666666667,-78.35
"Guajabamba","Guayas",-1.6833333333333333,-80.01666666666667
"Guajala","Guayas",-2.1,-79.8
"Guajibamba","Azuay",-2.8666666666666667,-78.93333333333334
"Gualaceo","Azuay",-2.9,-78.78333333333333
"Gualalaico","Azuay",-2.9833333333333334,-78.88333333333334
"Gualaquiza","Morona-Santiago",-3.4,-78.55
"Gualatan","Tungurahua",-1.2666666666666666,-78.5
"Gualaya","Cotopaxi",-0.75,-78.88333333333334
"Gualchan","Carchi",0.48333333333333334,-77.88333333333334
"Guale","Manabí",-1.6166666666666667,-80.23333333333333
"Gualea","Pichincha",0.11666666666666667,-78.73333333333333
"Gualel","Loja",-3.783333333333333,-79.38333333333334
"Gualiman","Imbabura",0.38333333333333336,-78.8
"Guallacay","Azuay",-2.7666666666666666,-78.68333333333334
"Guallagro","Azuay",-2.7666666666666666,-78.71666666666667
"Gualleturo","Cañar",-2.466666666666667,-79.11666666666666
"Guallupe","Imbabura",0.7833333333333333,-78.3
"Guama","Carchi",0.7666666666666667,-77.76666666666667
"Guambena","Cotopaxi",-1.1166666666666667,-78.93333333333334
"Guambi","Morona-Santiago",-2.6691666666666665,-77.08777777777777
"Guambusari","Loja",-3.55,-79.4
"Guamote","Chimborazo",-1.9333333333333333,-78.71666666666667
"Guanabana","Los Ríos",-1.4666666666666668,-79.83333333333333
"Guanando","Chimborazo",-1.5333333333333332,-78.53333333333333
"Guanazan","El Oro",-3.45,-79.5
"Guando","Zamora-Chinchipe",-3.569444444444444,-78.92083333333333
"Guando","Azuay",-2.8166666666666664,-78.81666666666666
"Guando","Azuay",-3.283333333333333,-79.01666666666667
"Guangaje","Cotopaxi",-0.8666666666666667,-78.83333333333333
"Guangala","Guayas",-2.0,-80.6
"Guangala","Guayas",-2.4166666666666665,-80.61666666666666
"Guangalo","Tungurahua",-1.3166666666666667,-78.56666666666666
"Guangana","Tungurahua",-1.3,-78.65
"Guangancho","Azuay",-2.8833333333333333,-78.81666666666666
"Guangopolo","Pichincha",-0.25,-78.45
"Guanguarcucho","Azuay",-2.85,-78.88333333333334
"Guano","Chimborazo",-1.5833333333333335,-78.63333333333334
"Guantugsumo","Tungurahua",-1.3333333333333333,-78.56666666666666
"Guantuhalo","Tungurahua",-1.15,-78.5
"Guanujo","Bolívar",-1.5666666666666667,-79.01666666666667
"Guapa","Tungurahua",-1.1666666666666667,-78.45
"Guapageo","Azuay",-3.1333333333333333,-79.06666666666666
"Guapan","Cañar",-2.716666666666667,-78.81666666666666
"Guapara","Guayas",-1.9666666666666668,-79.73333333333333
"Guapulo","Pichincha",-0.2,-78.48333333333333
"Guarahuin","Cañar",-2.533333333333333,-78.98333333333333
"Guarainac","Azuay",-2.6666666666666665,-78.61666666666666
"Guaranda","Bolívar",-1.6,-79.0
"Guaranglias","Azuay",-2.75,-78.73333333333333
"Guarango","Azuay",-2.9833333333333334,-78.88333333333334
"Guarangos","Cañar",-2.8,-78.85
"Guaranguillo","Zamora-Chinchipe",-4.95,-79.18333333333334
"Guararas","Loja",-4.016666666666667,-80.1
"Guarderas","Guayas",-1.4166666666666667,-79.91666666666667
"Guare","Los Ríos",-1.6833333333333333,-79.7
"Guare","Guayas",-2.0,-79.76666666666667
"Guarumal","Guayas",-1.7,-79.86666666666666
"Guarumal","Los Ríos",-1.8833333333333333,-79.65
"Guarumal","Azuay",-3.2666666666666666,-79.61666666666666
"Guarumal","Azuay",-2.6166666666666667,-78.53333333333333
"Guarumales","Cañar",-2.3833333333333333,-79.16666666666667
"Guarumo","Esmeraldas",1.2105555555555556,-78.73805555555556
"Guas Guas","Azuay",-3.1166666666666667,-79.56666666666666
"Guasaganda","Cotopaxi",-0.8,-79.16666666666667
"Guashuma","Azuay",-2.85,-78.9
"Guasimo","Loja",-4.366666666666666,-79.78333333333333
"Guasinga","Tungurahua",-1.3,-78.6
"Guasmal","Guayas",-1.5833333333333335,-80.11666666666666
"Guasmo","Guayas",-2.2333333333333334,-79.9
"Guasuntos","Chimborazo",-2.216666666666667,-78.81666666666666
"Guasurco","El Oro",-3.3333333333333335,-79.66666666666667
"Guatagshun","Azuay",-2.8833333333333333,-78.75
"Guatana","Azuay",-2.9,-78.98333333333333
"Guatara","Loja",-4.366666666666666,-80.01666666666667
"Guavisay","Azuay",-3.15,-78.93333333333334
"Guayabal","Pichincha",-0.21666666666666667,-79.25
"Guayabal","Loja",-4.466666666666667,-79.6
"Guayabo","El Oro",-3.5833333333333335,-79.9
"Guayabo","Manabí",-1.0166666666666666,-80.48333333333333
"Guayabo","Azuay",-3.3333333333333335,-79.56666666666666
"Guayacan","Loja",-4.25,-80.25
"Guayan","Pichincha",-0.21666666666666667,-78.65
"Guayan","Azuay",-2.783333333333333,-78.88333333333334
"Guayaquil","Guayas",-2.1666666666666665,-79.9
"Guayas","Guayas",-0.9666666666666667,-79.55
"Guayllabamba","Pichincha",-0.05,-78.33333333333333
"Guayquichuma","Loja",-3.8166666666666664,-79.55
"Guayrapungo","Cañar",-2.6,-78.8
"Guaytacama","Cotopaxi",-0.8166666666666667,-78.63333333333334
"Guayusa","Pastaza",-1.85,-76.31666666666666
"Guayzimi","Zamora-Chinchipe",-4.046666666666667,-78.68333333333334
"Guel","Azuay",-3.0166666666666666,-78.78333333333333
"Guelemon","Loja",-3.6333333333333333,-79.25
"Guembi","Esmeraldas",0.95,-78.78333333333333
"Guilbud","Chimborazo",-1.7333333333333334,-78.58333333333333
"Guillermo","Guayas",-1.3333333333333333,-80.05
"Guillermo Ortega","Azuay",-2.8333333333333335,-78.81666666666666
"Guinandel","Azuay",-2.966666666666667,-78.81666666666666
"Guineo Grande","Loja",-4.166666666666667,-80.15
"Guingopana","Cotopaxi",-0.75,-78.76666666666667
"Guintur","Azuay",-2.783333333333333,-78.66666666666667
"Guinzhun","Azuay",-2.9166666666666665,-78.75
"Guishapa","Azuay",-2.9833333333333334,-78.95
"Guishil","Azuay",-2.9166666666666665,-79.06666666666666
"Guisme","Zamora-Chinchipe",-3.5508333333333333,-78.56861111111111
"Guizhaguina","El Oro",-3.6833333333333336,-79.53333333333333
"Gulac","Cañar",-2.6333333333333333,-79.11666666666666
"Gulag","Azuay",-2.8333333333333335,-79.1
"Gulag Chico","Azuay",-2.9166666666666665,-78.75
"Gulag Grande","Azuay",-2.9166666666666665,-78.75
"Gulalag","Chimborazo",-1.7666666666666666,-78.7
"Gulianpucara","Azuay",-3.2,-79.13333333333334
"Gullian-Deleg","Cañar",-2.5166666666666666,-79.06666666666666
"Gulliancay","Cañar",-2.783333333333333,-78.88333333333334
"Gum","Cañar",-2.6333333333333333,-78.66666666666667
"Gun","Cañar",-2.466666666666667,-78.98333333333333
"Gun Chico","Cañar",-2.5166666666666666,-79.03333333333333
"Gun Grande","Cañar",-2.533333333333333,-79.06666666666666
"Guncay","Azuay",-2.9166666666666665,-78.96666666666667
"Gurgur","Azuay",-2.9333333333333336,-79.38333333333334
"Gushaguina","El Oro",-3.7,-79.58333333333333
"Guucacocha","Loja",-4.233333333333333,-80.21666666666667
"Guzho","Azuay",-2.9333333333333336,-79.05
"Habana","Los Ríos",-1.6166666666666667,-79.75
"Habas","Azuay",-2.95,-79.36666666666666
"Habaspamba","Azuay",-2.8833333333333333,-78.85
"Hacha","Sucumbios",-0.03333333333333333,-75.53333333333333
"Hacha","Manabí",-1.4666666666666668,-80.03333333333333
"Hacha","Guayas",-1.7166666666666668,-79.86666666666666
"Hacienda Abril","Azuay",-3.05,-79.05
"Hacienda Achiral","Loja",-4.4,-79.8
"Hacienda Agato","Pichincha",-0.08333333333333333,-78.36666666666666
"Hacienda Agualongo","Imbabura",0.2833333333333333,-78.21666666666667
"Hacienda Agualonguito","Imbabura",0.3,-78.21666666666667
"Hacienda Aguamasa","Cotopaxi",-1.0833333333333333,-78.71666666666667
"Hacienda Aichapiche","Pichincha",-0.48333333333333334,-78.58333333333333
"Hacienda Ainche","Chimborazo",-1.6666666666666665,-78.56666666666666
"Hacienda Ajigual","Guayas",-1.55,-79.88333333333334
"Hacienda Alabado","Chimborazo",-1.75,-78.73333333333333
"Hacienda Alagache","Pichincha",-0.15,-78.31666666666666
"Hacienda Alambi","Pichincha",-0.06666666666666667,-78.6
"Hacienda Alban","Pichincha",-0.16666666666666666,-78.38333333333334
"Hacienda Alchipichi","Pichincha",0.05,-78.4
"Hacienda Alegria","Pichincha",0.05,-78.16666666666667
"Hacienda Algarrobera","Loja",-4.033333333333333,-79.4
"Hacienda Alicia","Guayas",-1.0333333333333334,-79.6
"Hacienda Alina","Guayas",-2.183333333333333,-79.825
"Hacienda Almendral","Loja",-4.083333333333333,-79.8
"Hacienda Alobuela","Pichincha",0.13333333333333333,-78.4
"Hacienda Alobuela","Imbabura",0.38333333333333336,-78.2
"Hacienda Alor","Carchi",0.45,-77.9
"Hacienda Alpamala de Toro","Cotopaxi",-1.05,-78.66666666666667
"Hacienda Alpamala de Velasco","Cotopaxi",-1.05,-78.66666666666667
"Hacienda Altamirano","Carchi",0.6,-77.7
"Hacienda Alvarez","El Oro",-3.283333333333333,-79.93333333333334
"Hacienda Alvarez","Pichincha",-0.3,-78.56666666666666
"Hacienda Alvarez","Pichincha",-0.5166666666666667,-78.58333333333333
"Hacienda Alvarez","Pichincha",-0.55,-78.58333333333333
"Hacienda Amable Maria","Loja",-3.95,-79.21666666666667
"Hacienda Amanta","Cañar",-2.6,-78.81666666666666
"Hacienda Amboasi","Pichincha",0.016666666666666666,-78.53333333333333
"Hacienda Ambuela","Pichincha",0.11666666666666667,-78.4
"Hacienda America","Guayas",-0.9,-79.65
"Hacienda Amula","Chimborazo",-1.7,-78.73333333333333
"Hacienda Anaburo","Imbabura",0.43333333333333335,-78.23333333333333
"Hacienda Anafo","Imbabura",0.35,-78.2
"Hacienda Anagumba","Pichincha",0.2,-78.4
"Hacienda Anchola","Pichincha",0.03333333333333333,-78.11666666666666
"Hacienda Andahualo","Tungurahua",-1.0833333333333333,-78.51666666666667
"Hacienda Angela Maria Numero Dos","Guayas",-1.4,-79.93333333333334
"Hacienda Angelina","Carchi",0.4666666666666667,-77.9
"Hacienda Angla","Imbabura",0.2,-78.13333333333334
"Hacienda Araujo","Pichincha",-0.5,-78.56666666666666
"Hacienda Arcadia","Pichincha",-0.3,-78.53333333333333
"Hacienda Ardanza","Loja",-4.283333333333333,-79.58333333333333
"Hacienda Argelia","Pichincha",-0.26666666666666666,-78.53333333333333
"Hacienda Armenia","Pichincha",-0.2833333333333333,-78.46666666666667
"Hacienda Arteaga","Tungurahua",-1.0666666666666667,-78.55
"Hacienda Asactus","Chimborazo",-1.7166666666666668,-78.58333333333333
"Hacienda Aspur","Pichincha",-0.35,-78.5
"Hacienda Astudillo","Azuay",-3.0833333333333335,-79.01666666666667
"Hacienda Asuncion","Guayas",-2.9166666666666665,-79.8
"Hacienda Atahualpa","Cotopaxi",-0.95,-78.6
"Hacienda Atalpamba","Pichincha",-0.08333333333333333,-78.31666666666666
"Hacienda Atapulo","Cotopaxi",-0.8666666666666667,-78.75
"Hacienda Atocha","Cotopaxi",-1.0666666666666667,-78.71666666666667
"Hacienda Auquichico","Pichincha",-0.21666666666666667,-78.43333333333334
"Hacienda Auquigrande","Pichincha",-0.21666666666666667,-78.45
"Hacienda Aurora","Guayas",-1.6166666666666667,-79.98333333333333
"Hacienda Avelina","Cotopaxi",-0.8,-78.63333333333334
"Hacienda Ayahuaycu","Cañar",-2.55,-78.95
"Hacienda Ayalan","Guayas",-2.6166666666666667,-80.28333333333333
"Hacienda Ayaurcu","Pichincha",-0.43333333333333335,-78.56666666666666
"Hacienda Aycallate","Tungurahua",-1.1333333333333333,-78.55
"Hacienda Ayurcu","Pichincha",-0.43333333333333335,-78.56666666666666
"Hacienda Ayurcu de Pena","Pichincha",-0.43333333333333335,-78.55
"Hacienda Azaya","Imbabura",0.36666666666666664,-78.11666666666666
"Hacienda Balbina","Pichincha",-0.35,-78.48333333333333
"Hacienda Balcashi","Chimborazo",-1.7,-78.56666666666666
"Hacienda Balsapamba","Azuay",-3.216666666666667,-79.26666666666667
"Hacienda Balsayan","Chimborazo",-1.6,-78.68333333333334
"Hacienda Balvina","Pichincha",-0.3,-78.55
