ciudad,provincia,latitud,longitud
ABANICO,MORONA-SANTIAGO,-2.1166666666666667,-78.16666666666667
ABANIN,EL ORO,-3.3333333333333335,-79.5
ABDON CALDERON,MANABí,-1.0333333333333334,-80.33333333333333
ABDON CALDERON,SUCUMBIOS,0.09277777777777778,-76.89888888888889
ABDON CALDERON,AZUAY,-3.2666666666666666,-79.26666666666667
ACACIA,GUAYAS,-2.216666666666667,-79.875
ACHIOTE,LOS RíOS,-1.2166666666666668,-79.51666666666667
ACHIOTE,LOS RíOS,-1.6666666666666665,-79.65
ACHOTE,GUAYAS,-1.9166666666666665,-79.63333333333334
ACHUENTZA,MORONA-SANTIAGO,-2.830833333333333,-77.76027777777777
ACHUNTZA,ZAMORA-CHINCHIPE,-3.6972222222222224,-78.55833333333334
ACHUPALLAS,CHIMBORAZO,-2.2666666666666666,-78.73333333333333
ACHUPALLAS,TUNGURAHUA,-1.1333333333333333,-78.46666666666667
ACHUPALLAS,TUNGURAHUA,-1.3,-78.56666666666666
AFRICA,ESMERALDAS,1.075,-79.28333333333333
AFRICA,MANABí,-0.7333333333333333,-80.31666666666666
AGOYAN,TUNGURAHUA,-1.3833333333333333,-78.31666666666666
AGUA BLANCA,MANABí,-1.5333333333333332,-80.73333333333333
AGUA CALIENTE,PICHINCHA,-0.43333333333333335,-78.66666666666667
AGUA FRIA,MANABí,-0.9,-80.13333333333334
AGUA FRIA,MANABí,-1.3666666666666667,-80.4
AGUACATAL,LOS RíOS,-1.3333333333333333,-79.65
AGUACATAL,MANABí,-1.6166666666666667,-80.43333333333334
AGUADA,GUAYAS,-2.9833333333333334,-80.18333333333334
AGUADITA,GUAYAS,-2.1333333333333333,-80.6
AGUAHEDIONDA,LOJA,-3.966666666666667,-79.23333333333333
AGUAPIEDRA,GUAYAS,-2.716666666666667,-80.08333333333333
AGUARICO,SUCUMBIOS,0.05,-77.36666666666666
AGUARICO,SUCUMBIOS,-0.2833333333333333,-75.86666666666666
AGUARICO TRES,SUCUMBIOS,0.01888888888888889,-76.66250000000001
AGUAS AIRES,GUAYAS,-2.183333333333333,-79.98333333333333
AGUAS BLANCAS,AZUAY,-2.8,-78.73333333333333
AGUAS BLANCAS,GUAYAS,-1.7833333333333332,-79.91666666666667
AGUAS BLANCAS CHICO,SUCUMBIOS,0.13805555555555554,-76.99027777777778
AGUAS VERDES,GUAYAS,-2.3,-80.26666666666667
AGUAS VERDES,EL ORO,-3.5,-80.28333333333333
AGUEL,CARCHI,0.8833333333333333,-78.08333333333333
AGUIRRE,PICHINCHA,0.11666666666666667,-78.75
AHUACA DEL CARMEN,LOJA,-4.3,-79.55
AHUANO,NAPO,-1.0666666666666667,-77.51666666666667
AICHABUG,CHIMBORAZO,-1.7166666666666668,-78.73333333333333
AJILANGA,LOJA,-4.25,-79.61666666666666
AJOSHUAICO,AZUAY,-3.0,-78.9
ALAMOR,LOJA,-4.033333333333333,-80.03333333333333
ALANGASI,PICHINCHA,-0.3,-78.41666666666667
ALAO,CHIMBORAZO,-1.9,-78.48333333333333
ALAQUEZ,COTOPAXI,-0.8666666666666667,-78.6
ALASPUNGO,PICHINCHA,0.0,-78.6
ALAUSI,CHIMBORAZO,-2.2,-78.83333333333333
ALBORADA,GUAYAS,-1.9166666666666665,-79.85
ALBORNOZ,TUNGURAHUA,-1.3,-78.55
ALEGRIA,LOS RíOS,-1.8833333333333333,-79.58333333333333
ALFARO,PICHINCHA,-0.23333333333333334,-78.51666666666667
ALFREDO BAQUERIZO MORENO,GUAYAS,-1.9166666666666665,-79.51666666666667
ALGARROBAL,GUAYAS,-3.0166666666666666,-80.15
ALGARROBILLO,LOJA,-4.166666666666667,-80.05
ALGARROBOS,GUAYAS,-2.3,-79.71666666666667
ALGODONAL,LOJA,-4.2,-79.78333333333333
ALGODONAL,LOJA,-4.183333333333334,-80.31666666666666
ALGODONAL,LOJA,-4.266666666666667,-80.03333333333333
ALHAJUELA,MANABí,-1.0666666666666667,-80.28333333333333
ALLPACRUZ,CAñAR,-2.7,-78.8
ALLURIQUIN,PICHINCHA,-0.31666666666666665,-78.98333333333333
ALOAG,PICHINCHA,-0.4666666666666667,-78.58333333333333
ALOASI,PICHINCHA,-0.5166666666666667,-78.58333333333333
ALOBAMBA,TUNGURAHUA,-1.3666666666666667,-78.63333333333334
ALOBURO,IMBABURA,0.43333333333333335,-78.05
ALPACHACA,AZUAY,-2.9833333333333334,-78.88333333333334
ALSHI,MORONA-SANTIAGO,-2.216666666666667,-78.25
ALTAMAR,ESMERALDAS,0.8,-79.41666666666667
ALTAR URCO,CAñAR,-2.466666666666667,-79.03333333333333
ALTO TAMBO,ESMERALDAS,0.8666666666666667,-78.53333333333333
ALUBUSHCO,LOJA,-4.316666666666666,-79.86666666666666
ALUMBRE,LOJA,-3.3666666666666667,-79.43333333333334
ALUSACA,LOJA,-3.9833333333333334,-79.7
ALVARADO,AZUAY,-2.85,-78.76666666666667
ALVAREZ,GUAYAS,-2.1333333333333333,-79.43333333333334
AMAGUANA,PICHINCHA,-0.36666666666666664,-78.45
AMALIA,GUAYAS,-2.05,-79.9
AMALIA,GUAYAS,-1.9166666666666665,-80.0
AMALIA,LOS RíOS,-1.5166666666666666,-79.43333333333334
AMALIA MONCADA,GUAYAS,-1.7833333333333332,-79.83333333333333
AMALUZA,AZUAY,-2.8333333333333335,-78.48333333333333
AMALUZA,LOJA,-4.6,-79.41666666666667
AMANCAYES,LOJA,-3.8666666666666667,-79.8
AMASHARA,AZUAY,-3.2,-78.98333333333333
AMAZONAS,MORONA-SANTIAGO,-3.3833333333333333,-78.73333333333333
AMAZONAS,PASTAZA,-1.6333333333333333,-77.98333333333333
AMBABAQUI,TUNGURAHUA,-1.3,-78.53333333333333
AMBATILLO,TUNGURAHUA,-1.2333333333333334,-78.65
AMBATO,TUNGURAHUA,-1.2491666666666668,-78.61666666666666
AMBUQUI,IMBABURA,0.43333333333333335,-78.01666666666667
AMELIA,GUAYAS,-2.05,-79.93333333333334
AMELIA,GUAYAS,-1.9833333333333334,-79.43333333333334
AMERICA,GUAYAS,-1.8666666666666667,-79.71666666666667
AMERICA,MANABí,-1.4333333333333333,-80.51666666666667
AMERICA,GUAYAS,-1.8666666666666667,-80.03333333333333
AMERICA,GUAYAS,-1.8666666666666667,-80.01666666666667
ANA,GUAYAS,-2.066666666666667,-79.91666666666667
ANA MARIA,LOS RíOS,-0.9833333333333333,-79.41666666666667
ANANGU,SUCUMBIOS,-0.5333333333333333,-76.38333333333334
ANASQUE,GUAYAS,-1.55,-79.98333333333333
ANCAYACU,ORELLANA,-0.7,-76.0
ANCHAMASA,PICHINCHA,-0.36666666666666664,-78.51666666666667
ANCHAYACU,ESMERALDAS,0.95,-79.06666666666666
ANCON,ESMERALDAS,1.445,-78.86083333333333
ANCON,GUAYAS,-2.3333333333333335,-80.86666666666666
ANCONCITO,GUAYAS,-2.3333333333333335,-80.88333333333334
ANDARRIALES,MANABí,-1.0,-80.1
ANDIGNATO,TUNGURAHUA,-1.35,-78.61666666666666
ANDOAS,PASTAZA,-2.5666666666666664,-76.63333333333334
ANDRADE MARIN,IMBABURA,0.3333333333333333,-78.21666666666667
ANGAMARCA,COTOPAXI,-1.1166666666666667,-78.93333333333334
ANGAMARCALLE,COTOPAXI,-1.0,-78.61666666666666
ANGAPAMBA,AZUAY,-2.8833333333333333,-78.86666666666666
ANGAS,CAñAR,-2.4,-78.98333333333333
ANGAS,AZUAY,-2.9333333333333336,-79.35
ANGASHCO,LOJA,-4.466666666666667,-79.86666666666666
ANGASMAYO,CARCHI,0.8333333333333334,-77.7
ANGELA MARIA,GUAYAS,-1.3833333333333333,-79.93333333333334
ANGELICA,GUAYAS,-2.1666666666666665,-79.65
ANGELICA,GUAYAS,-1.8833333333333333,-79.78333333333333
ANGELINA,GUAYAS,-1.9166666666666665,-79.61666666666666
ANGELITA,GUAYAS,-2.183333333333333,-79.66666666666667
ANGELITA,GUAYAS,-2.1333333333333333,-79.63333333333334
ANGOCHAGUA,IMBABURA,0.25,-78.08333333333333
ANGOSTURA,SUCUMBIOS,0.4,-76.33333333333333
ANGUASHA,MORONA-SANTIAGO,-2.0166666666666666,-77.95
ANIMAS,LOS RíOS,-1.5333333333333332,-79.7
ANKUASH,MORONA-SANTIAGO,-2.711388888888889,-77.57166666666666
ANONA,MANABí,-1.2833333333333332,-80.46666666666667
ANTISANA,AZUAY,-2.95,-79.01666666666667
ANTONIO JOSE HOLGUIN,COTOPAXI,-1.1166666666666667,-78.58333333333333
ANTONIO SOTOMAYOR,LOS RíOS,-1.65,-79.8
APAGUA,COTOPAXI,-0.9666666666666667,-78.93333333333334
APATUG,TUNGURAHUA,-1.3166666666666667,-78.7
APUELA,IMBABURA,0.35,-78.5
ARAJUNO,PASTAZA,-1.2333333333333334,-77.66666666666667
ARAPICOS,MORONA-SANTIAGO,-1.85,-77.95
ARCADIA,GUAYAS,-1.5333333333333332,-80.01666666666667
ARCHIDONA,NAPO,-0.9166666666666666,-77.8
ARCHIRAS,LOJA,-4.1,-79.26666666666667
ARCOS,LOJA,-3.55,-79.48333333333333
ARENAL,CAñAR,-2.3666666666666667,-79.03333333333333
ARENILLAS,EL ORO,-3.55,-80.06666666666666
ARIAS,LOS RíOS,-1.3333333333333333,-79.8
ARIO,GUAYAS,-2.2666666666666666,-79.86666666666666
ARIZAGA,AZUAY,-2.9166666666666665,-78.78333333333333
ARMENIA,ORELLANA,-0.5333333333333333,-77.08333333333333
AROMO,MANABí,-1.05,-80.9
ARQUILLO,AZUAY,-2.7666666666666666,-79.45
ARRASTRADERO,MANABí,0.16666666666666666,-80.06666666666666
ARRAYAN,CAñAR,-2.4833333333333334,-79.11666666666666
ARRAYAN,AZUAY,-3.0833333333333335,-79.05
ARRAYAN,CARCHI,0.7666666666666667,-77.78333333333333
ARRAYAN DORMIDO,CAñAR,-2.4333333333333336,-79.01666666666667
ARRAYANCUCHO,PICHINCHA,0.16666666666666666,-78.03333333333333
ARRES,CAñAR,-2.4833333333333334,-78.95
ARROZAL,CAñAR,-2.55,-79.33333333333333
ARROZAL,ORELLANA,-0.7833333333333333,-75.28333333333333
ARTILLERIA,GUAYAS,-1.9333333333333333,-79.71666666666667
ARVIDA,GUAYAS,-1.7833333333333332,-79.78333333333333
ASAVO,MORONA-SANTIAGO,-3.321944444444444,-78.47888888888889
ASCAZUBI,PICHINCHA,-0.08333333333333333,-78.28333333333333
ASCAZUBI ALTO,PICHINCHA,-0.08333333333333333,-78.28333333333333
ASCENSION,GUAYAS,-1.9166666666666665,-79.75
ASUNCION,AZUAY,-3.2,-79.25
ASUNCION,MORONA-SANTIAGO,-2.4833333333333334,-78.16666666666667
ASUNCION,BOLíVAR,-1.65,-79.03333333333333
ATACAMES,ESMERALDAS,0.8666666666666667,-79.85
ATACMES,ESMERALDAS,0.8772222222222222,-79.87972222222221
ATAHUALPA,ESMERALDAS,0.8666666666666667,-78.98333333333333
ATAHUALPA,TUNGURAHUA,-1.2166666666666668,-78.61666666666666
ATAHUALPA,GUAYAS,-2.3166666666666664,-80.78333333333333
ATAHUALPA,PICHINCHA,0.13333333333333333,-78.38333333333334
ATAHUALPA,MANABí,-0.03333333333333333,-79.96666666666667
ATAR,CAñAR,-2.6833333333333336,-78.88333333333334
ATILIO,CHIMBORAZO,-2.1666666666666665,-78.56666666666666
ATO DE LA VIRGEN,CAñAR,-2.533333333333333,-78.86666666666666
ATOCHA,TUNGURAHUA,-1.2166666666666668,-78.6
ATRAVESADO,GUAYAS,-1.9,-80.75
ATRAVESAO,GUAYAS,-2.283333333333333,-80.7
ATUHUAYCU,CAñAR,-2.55,-78.91666666666667
ATUNTAQUI,IMBABURA,0.3333333333333333,-78.21666666666667
AUCAYACU,PASTAZA,-1.5833333333333335,-75.61666666666666
AUGUSTO N. MARTINEZ,TUNGURAHUA,-1.2166666666666668,-78.61666666666666
AURORA,GUAYAS,-1.85,-79.8
AURORA,GUAYAS,-1.9833333333333334,-79.5
AURORA,GUAYAS,-2.066666666666667,-79.9
AVANIN CHICO,AZUAY,-3.183333333333333,-79.2
AVILA,ORELLANA,-0.6333333333333333,-77.41666666666667
AVILA,MANABí,-0.75,-80.36666666666666
AYACUCHO,MANABí,-1.15,-80.28333333333333
AYAMPE,MANABí,-1.6666666666666665,-80.81666666666666
AYAMU,PASTAZA,-1.65,-76.06666666666666
AYANCAY,CAñAR,-2.8,-78.86666666666666
AYANGUE,GUAYAS,-1.9833333333333334,-80.73333333333333
AYAPAMBA,CAñAR,-2.7,-78.73333333333333
AYAPAMBA,AZUAY,-2.95,-79.01666666666667
AYAPAMBA,EL ORO,-3.6,-79.66666666666667
AYASA,LOS RíOS,-0.75,-79.46666666666667
AYORA,PICHINCHA,0.06666666666666667,-78.13333333333334
AYUY,MORONA-SANTIAGO,-2.0833333333333335,-77.6
AZAMANA,CHIMBORAZO,-2.15,-78.55
AZOGUES,CAñAR,-2.7333333333333334,-78.83333333333333
AZUCAR,GUAYAS,-2.25,-80.58333333333333
AZUCENA,GUAYAS,-1.85,-79.81666666666666
BABA,LOS RíOS,-1.7833333333333332,-79.66666666666667
BABAHOYO,LOS RíOS,-1.8166666666666667,-79.51666666666667
BACHILLERO,MANABí,-0.7833333333333333,-80.21666666666667
BACHIRIN,CAñAR,-2.533333333333333,-79.25
BACUNDO,MORONA-SANTIAGO,-2.533333333333333,-77.36666666666666
BADEAL,LOJA,-4.383333333333334,-79.98333333333333
BAEJON,AZUAY,-3.4833333333333334,-79.1
BAEZA,NAPO,-0.45,-77.88333333333334
BAGATELA,GUAYAS,-2.0166666666666666,-79.95
BAGPANCEL,AZUAY,-2.966666666666667,-78.83333333333333
BAGUANCHE,AZUAY,-2.9,-78.91666666666667
BAHIA DE CARAQUEZ,MANABí,-0.6,-80.41666666666667
BAJADA,GUAYAS,-2.75,-80.2
BAJADA,GUAYAS,-2.35,-80.25
BAJADA DE CHANDUY,GUAYAS,-2.3,-80.28333333333333
BAJADA DE COLONCHE,GUAYAS,-2.0166666666666666,-80.6
BAJANA,EL ORO,-3.65,-80.01666666666667
BAJEN,GUAYAS,-2.3833333333333333,-80.08333333333333
BAJITO,ESMERALDAS,1.299722222222222,-78.96611111111112
BAJO,ESMERALDAS,1.2833333333333332,-78.96666666666667
BAJO ALTO,GUAYAS,-3.1166666666666667,-79.9
BAJO DE AFUERA,MANABí,-1.1166666666666667,-80.65
BAJO GRANDE,MANABí,-1.0833333333333333,-80.68333333333334
BALAO,GUAYAS,-2.9166666666666665,-79.81666666666666
BALAO CHICO,GUAYAS,-2.7333333333333334,-79.75
BALAURA,PASTAZA,-1.85,-76.43333333333334
BALLENITA,GUAYAS,-2.202777777777778,-80.86944444444444
BALSA,GUAYAS,-1.3166666666666667,-80.0
BALSA REAL,LOJA,-4.233333333333333,-80.23333333333333
BALSALITO,EL ORO,-3.5833333333333335,-80.2
BALSAY,AZUAY,-2.9,-79.05
BALSERIA,LOS RíOS,-1.2333333333333334,-79.3
BALSILLAR,GUAYAS,-2.9166666666666665,-79.86666666666666
BALVANEDA,CHIMBORAZO,-1.7166666666666668,-78.76666666666667
BALZAPAMBA,BOLíVAR,-1.7666666666666666,-79.18333333333334
BALZAR,GUAYAS,-1.3666666666666667,-79.9
BALZAR,MANABí,-0.5,-80.08333333333333
BALZAS,EL ORO,-3.783333333333333,-79.81666666666666
BAMBA,ESMERALDAS,0.55,-79.65
BAMBIL CALLAO,GUAYAS,-1.9666666666666668,-80.66666666666667
BAMBIL DESHECHO,GUAYAS,-1.9833333333333334,-80.66666666666667
BANDERAS,MORONA-SANTIAGO,-3.441388888888889,-78.235
BANDERAS,MORONA-SANTIAGO,-3.386388888888889,-78.23722222222223
BANDO,LOJA,-3.95,-79.66666666666667
BANEPO,LOS RíOS,-1.5666666666666667,-79.66666666666667
BANIPE,GUAYAS,-1.8666666666666667,-79.98333333333333
BANOS,TUNGURAHUA,-1.4,-78.41666666666667
BANOS,AZUAY,-2.9,-79.06666666666666
BANOS,GUAYAS,-2.216666666666667,-80.7
BANOS DE YUNGA,AZUAY,-2.9333333333333336,-79.5
BAñOS DE AGUA SANTA,TUNGURAHUA,-1.396388888888889,-78.42472222222223
BAQUERIA,CHIMBORAZO,-2.0833333333333335,-78.58333333333333
BAQUERIZO MORENO,GUAYAS,-1.9,-79.55
BAQUERIZO MORENO,TUNGURAHUA,-1.2333333333333334,-78.5
BARABON,AZUAY,-2.9166666666666665,-79.08333333333333
BARATILLO,IMBABURA,0.36666666666666664,-78.7
BARBASCAL,GUAYAS,-2.0166666666666666,-80.61666666666666
BARBASCAL,ZAMORA-CHINCHIPE,-3.6133333333333333,-78.92222222222223
BARBASCO,GUAYAS,-1.7,-79.98333333333333
BARBONES,EL ORO,-3.183333333333333,-79.91666666666667
BARCELONA,GUAYAS,-1.95,-80.7
BARRAGANETAL,GUAYAS,-2.183333333333333,-79.3
BARRANCO,GUAYAS,-2.066666666666667,-79.81666666666666
BARRANCO COLORADO,EL ORO,-3.4333333333333336,-79.9
BARREIRO,LOS RíOS,-1.7833333333333332,-79.51666666666667
BARRIO BELLAVISTA,SUCUMBIOS,0.23416666666666666,-76.84444444444443
BARRIO DE ARRIBA,CAñAR,-2.7666666666666666,-78.91666666666667
BARRIO NUEVE DE OCTUBRE,SUCUMBIOS,0.23472222222222222,-76.84305555555555
BARRO,LOS RíOS,-0.9833333333333333,-79.46666666666667
BARRO COLORADO,ESMERALDAS,0.9666666666666667,-78.88333333333334
BARTASQUI,AZUAY,-3.5,-79.16666666666667
BASTIDAS,PICHINCHA,-0.23333333333333334,-78.76666666666667
BASTILLA,GUAYAS,-1.7833333333333332,-79.81666666666666
BATAN,GUAYAS,-1.1666666666666667,-79.93333333333334
BATAN DE ARRIBA,GUAYAS,-2.1,-79.9
BAYAN,AZUAY,-3.3666666666666667,-79.08333333333333
BAYANAL,AZUAY,-3.4833333333333334,-79.06666666666666
BAYAS,CAñAR,-2.6833333333333336,-78.8
BAYO CRUZ,CAñAR,-2.466666666666667,-78.98333333333333
BEATRIZ,GUAYAS,-1.7833333333333332,-79.83333333333333
BEBO,GUAYAS,-1.7166666666666668,-79.81666666666666
BECHE,MANABí,0.18333333333333332,-79.91666666666667
BEJUCAL,LOJA,-4.233333333333333,-80.3
BEJUCAL,LOJA,-4.3,-80.36666666666666
BEJUCAL,EL ORO,-3.6,-80.15
BELDACA,LOS RíOS,-1.5166666666666666,-79.7
BELDACA,GUAYAS,-1.9666666666666668,-79.9
BELDACO,GUAYAS,-1.9666666666666668,-79.51666666666667
BELEN,GUAYAS,-2.15,-80.15
BELEN,LOJA,-3.8833333333333333,-79.56666666666666
BELGICA,GUAYAS,-1.85,-79.83333333333333
BELGICA,GUAYAS,-2.3,-79.7
BELISARIO QUEVEDO,COTOPAXI,-0.9666666666666667,-78.56666666666666
BELLA ESPERANZA,GUAYAS,-1.85,-79.95
BELLA JUANITA,EL ORO,-3.3166666666666664,-79.88333333333334
BELLA MARIA,EL ORO,-3.5166666666666666,-79.91666666666667
BELLA UNION,GUAYAS,-1.8833333333333333,-79.73333333333333
BELLA VISTA,GUAYAS,-1.9166666666666665,-80.0
BELLA VISTA,LOS RíOS,-1.7333333333333334,-79.45
BELLA VISTA,GUAYAS,-2.0166666666666666,-80.6
BELLAVISTA,GUAYAS,-2.1666666666666665,-80.33333333333333
BELLAVISTA,LOJA,-4.566666666666666,-79.46666666666667
BELLAVISTA,ESMERALDAS,1.1777777777777778,-78.94611111111111
BELLAVISTA,GUAYAS,-2.033333333333333,-79.83333333333333
BELLAVISTA,AZUAY,-3.15,-79.15
BELLAVISTA,GUAYAS,-2.6166666666666667,-79.9
BELLAVISTA,GUAYAS,-1.9833333333333334,-79.4
BELLAVISTA,SUCUMBIOS,0.15916666666666665,-76.81972222222223
BELLAVISTA,GALáPAGOS,-0.6833333333333333,-90.3
BELLAVISTA,MANABí,-1.3166666666666667,-80.28333333333333
BELLAVISTA,CHIMBORAZO,-1.7833333333333332,-78.6
BELLAVISTA,EL ORO,-3.5,-79.96666666666667
BELLAVISTA,ORELLANA,-0.75,-75.58333333333333
BELLAVISTA,TUNGURAHUA,-1.3,-78.66666666666667
BELLO HORIZONTE,ORELLANA,-0.9,-75.43333333333334
BENIGNO VELA,TUNGURAHUA,-1.2833333333333332,-78.68333333333334
BENITA,GUAYAS,-2.25,-79.73333333333333
BENITEZ,TUNGURAHUA,-1.3333333333333333,-78.58333333333333
BERENGENA,GUAYAS,-1.8833333333333333,-79.73333333333333
BERLIN,GUAYAS,-2.1333333333333333,-79.6
BERMEJA,SUCUMBIOS,0.28305555555555556,-77.07944444444443
BERMEJO,NAPO,-0.5166666666666667,-77.88333333333334
BERMEJO,GUAYAS,-1.7666666666666666,-80.03333333333333
BERMEJOS,MORONA-SANTIAGO,-3.3,-78.7
BESTION,AZUAY,-3.1666666666666665,-79.21666666666667
BIBILCAY,CAñAR,-2.75,-78.8
BIBLIAN,CAñAR,-2.7,-78.86666666666666
BIFFARINI,ORELLANA,-0.8833333333333333,-75.23333333333333
BIJAGUAL,LOS RíOS,-1.6,-79.36666666666666
BILLINGOTA,GUAYAS,-2.3666666666666667,-80.46666666666667
BILOVAN,BOLíVAR,-1.8,-79.1
BIRON,EL ORO,-3.5166666666666666,-79.81666666666666
BLANCO MACAS,AZUAY,-3.033333333333333,-78.93333333333334
BOCA CHICA,GUAYAS,-1.3,-79.88333333333334
BOCA DASHINO,NAPO,-0.06666666666666667,-77.28333333333333
BOCA DE BRICENO,MANABí,-0.5166666666666667,-80.43333333333334
BOCA DE CANA,GUAYAS,-2.0,-79.76666666666667
BOCA DE CHILA,PICHINCHA,-0.1,-79.6
BOCA DE GUANABANO,GUAYAS,-1.7333333333333334,-80.43333333333334
BOCA DE MARIA,ESMERALDAS,1.0672222222222223,-78.94611111111111
BOCA DE PALMITO,MANABí,-0.06666666666666667,-79.73333333333333
BOCA SUNO,ORELLANA,-0.7166666666666667,-77.13333333333334
BOCA TIPUTINI,ORELLANA,-0.8,-75.55
BOCA YANAYACU,ORELLANA,-0.8833333333333333,-75.21666666666667
BOCANA,LOJA,-4.15,-80.41666666666667
BOCANA,EL ORO,-3.1166666666666667,-79.91666666666667
BOCANA,GUAYAS,-1.8333333333333335,-79.81666666666666
BOCANA,ESMERALDAS,1.075,-79.30555555555556
BOCANA DEL BUA,PICHINCHA,-0.016666666666666666,-79.58333333333333
BODEGUITA,GUAYAS,-2.066666666666667,-79.73333333333333
BOLA DE ORO,GUAYAS,-2.7,-79.68333333333334
BOLALOMA,LOJA,-3.8833333333333333,-79.26666666666667
BOLICHE,PICHINCHA,-0.45,-78.7
BOLICHE,GUAYAS,-2.3333333333333335,-79.63333333333334
BOLIVAR,CARCHI,0.5,-77.88333333333334
BOLIVAR,PASTAZA,-1.6166666666666667,-76.23333333333333
BOLIVAR,TUNGURAHUA,-1.3666666666666667,-78.55
BOLIVAR,ESMERALDAS,0.43333333333333335,-80.03333333333333
BOLONA,PICHINCHA,-0.4,-78.78333333333333
BOMBA,GUAYAS,-2.4,-80.78333333333333
BOMBOIZA,MORONA-SANTIAGO,-3.4333333333333336,-78.51666666666667
BOMBON,LOS RíOS,-1.4833333333333334,-79.78333333333333
BOMBONAQUI,PASTAZA,-1.5,-76.58333333333333
BONCE,MANABí,-1.2333333333333334,-80.35
BOQUERON,GUAYAS,-1.8666666666666667,-79.95
BORBON,ESMERALDAS,1.0883333333333332,-78.9888888888889
BORNA,AZUAY,-2.95,-78.86666666666666
BORNEO,PICHINCHA,-0.25,-79.13333333333334
BORRERO,CAñAR,-2.7666666666666666,-78.81666666666666
BOTADERO,GUAYAS,-2.6833333333333336,-80.36666666666666
BOTIJA PAQUINA,CAñAR,-2.45,-79.01666666666667
BOYACA,MANABí,-0.5666666666666667,-80.2
BRAMADERO,GUAYAS,-1.9333333333333333,-79.93333333333334
BRAVOS,MANABí,-0.6,-80.18333333333334
BRIONES,LOJA,-4.466666666666667,-80.36666666666666
BUCAY,CHIMBORAZO,-2.1666666666666665,-79.1
BUCAY,GUAYAS,-2.6833333333333336,-79.66666666666667
BUCAY CHICO,CAñAR,-2.2333333333333334,-79.11666666666666
BUENA ESPERANZA,GUAYAS,-1.8666666666666667,-79.8
BUENA FE,GUAYAS,-2.2666666666666666,-79.61666666666666
BUENA FE,LOS RíOS,-0.9,-79.48333333333333
BUENA FE,GUAYAS,-1.8,-79.8
BUENA FE,ZAMORA-CHINCHIPE,-3.6741666666666664,-78.60972222222222
BUENA MUERTE,CAñAR,-2.716666666666667,-78.91666666666667
BUENA SUERTE,GUAYAS,-1.7666666666666666,-79.81666666666666
BUENA VISTA,SUCUMBIOS,0.10583333333333333,-76.92916666666667
BUENAVENTURA,EL ORO,-3.6166666666666667,-79.8
BUENAVISTA,LOJA,-3.8833333333333333,-79.7
BUENAVISTA,SUCUMBIOS,0.43333333333333335,-76.28333333333333
BUENAVISTA,EL ORO,-3.3666666666666667,-79.85
BUENAVISTA,GUAYAS,-2.9833333333333334,-79.81666666666666
BUENAVISTA,GUAYAS,-2.2,-80.36666666666666
BUENOS AIRES,EL ORO,-3.4,-80.2
BUENOS AIRES,GUAYAS,-2.341666666666667,-80.50416666666666
BUENOS AIRES,MANABí,-1.3666666666666667,-80.33333333333333
BUENOS AIRES,LOJA,-3.9833333333333334,-80.06666666666666
BUENOS AIRES,GUAYAS,-1.95,-80.7
BUENOS AIRES,GUAYAS,-2.2,-79.18333333333334
BUENOS AIRES,GUAYAS,-2.7666666666666666,-79.91666666666667
BUENOS AIRES,ESMERALDAS,1.175,-78.90277777777779
BUESTE,CAñAR,-2.65,-78.91666666666667
BUGDEL,AZUAY,-2.7666666666666666,-78.7
BUICHUM,AZUAY,-2.8833333333333333,-78.78333333333333
BUIJO,GUAYAS,-2.1,-79.81666666666666
BULAN,AZUAY,-2.7333333333333334,-78.75
BULCAY,AZUAY,-2.8833333333333333,-78.78333333333333
BUNCHE,ESMERALDAS,0.65,-80.03333333333333
BUNQUES,EL ORO,-3.283333333333333,-79.6
BURGAY,CAñAR,-2.6666666666666665,-78.93333333333334
BURI,AZUAY,-3.0833333333333335,-79.51666666666667
BURIN,AZUAY,-2.85,-78.73333333333333
BUSINGA,ESMERALDAS,0.8666666666666667,-79.46666666666667
CABANO,SUCUMBIOS,0.12916666666666668,-77.41388888888889
CABEZA DE TORO,LOJA,-4.283333333333333,-80.33333333333333
CABO DE HORNOS,EL ORO,-3.5833333333333335,-80.06666666666666
CABO LAMPA,EL ORO,-3.466666666666667,-80.06666666666666
CABO MINACHO,SUCUMBIOS,-0.1,-75.5
CABUNCATA,AZUAY,-3.216666666666667,-79.15
CABUYA,GUAYAS,-1.4833333333333334,-79.93333333333334
CABUYAL,MANABí,-1.0,-80.13333333333334
CABUYAL,MANABí,-0.05,-80.11666666666666
CABUYAL,ESMERALDAS,1.0333333333333334,-79.47500000000001
CACAGUAL,ESMERALDAS,1.1675,-78.99361111111111
CACAO PUNTO,ORELLANA,-0.65,-77.13333333333334
CACAOAL,COTOPAXI,-1.0166666666666666,-79.2
CACARRUMI,AZUAY,-3.0833333333333335,-79.01666666666667
CACHA,CHIMBORAZO,-1.7,-78.66666666666667
CACHAHUAICO,CAñAR,-2.65,-78.78333333333333
CACHANLO DE SIDCAY,AZUAY,-2.8166666666666664,-78.93333333333334
CACHAULO DE MACHANGARA,AZUAY,-2.8666666666666667,-78.96666666666667
CACHI,AZUAY,-3.216666666666667,-79.16666666666667
CACHIGUAICO,AZUAY,-3.05,-78.75
CACHILLACTA,PICHINCHA,0.06666666666666667,-78.63333333333334
CACHILOMA,CAñAR,-2.7333333333333334,-78.8
CACHIPAMBA,LOJA,-3.9333333333333336,-79.28333333333333
CACHIPAMBA,AZUAY,-2.95,-79.01666666666667
CACHIPAMBA,CAñAR,-2.7,-78.83333333333333
CACHIPAMBA,AZUAY,-3.4833333333333334,-79.16666666666667
CACHIPAMBA,CAñAR,-2.75,-78.81666666666666
CACHIPIRCA,LOJA,-3.85,-79.28333333333333
CACHITAMBO,PASTAZA,-2.2666666666666666,-76.78333333333333
CADEAL,GUAYAS,-1.5833333333333335,-80.13333333333334
CADEATE,GUAYAS,-1.8833333333333333,-80.76666666666667
CADENILLAS,TUNGURAHUA,-1.3833333333333333,-78.26666666666667
CAFERINO ESPANOL,GUAYAS,-1.2666666666666666,-79.9
CAGUANSHUM CHICO,AZUAY,-2.8666666666666667,-78.8
CAGUASHUM GRANDE,AZUAY,-2.8833333333333333,-78.8
CAHUASQUI,IMBABURA,0.5166666666666667,-78.23333333333333
CAIGUAS,AZUAY,-2.7666666666666666,-78.65
CAIMITO,ESMERALDAS,0.7166666666666667,-80.08333333333333
CAIMITO,GUAYAS,-2.3833333333333333,-80.36666666666666
CAIPI,ZAMORA-CHINCHIPE,-3.7108333333333334,-78.5625
CAJABAMBA,CHIMBORAZO,-1.7,-78.75
CAJAS,AZUAY,-2.8166666666666664,-79.26666666666667
CAJON TAMBO,CAñAR,-2.533333333333333,-78.85
CAJONTAMBO,CAñAR,-2.5,-78.83333333333333
CALABI,LOS RíOS,-1.1833333333333333,-79.36666666666666
CALABRIA,LOS RíOS,-1.7833333333333332,-79.56666666666666
CALACALI,PICHINCHA,0.0,-78.51666666666667
CALCETA,MANABí,-0.85,-80.16666666666667
CALCICANTE,GUAYAS,-2.183333333333333,-80.6
CALDERA,AZUAY,-2.8166666666666664,-78.95
CALDERON,ESMERALDAS,1.1786111111111113,-78.76527777777778
CALDERON,PICHINCHA,-0.1,-78.43333333333334
CALEDONIAS,AZUAY,-3.216666666666667,-79.21666666666667
CALENTURA,GUAYAS,-2.1166666666666667,-79.83333333333333
CALERA,PICHINCHA,-0.03333333333333333,-78.56666666666666
CALHUACHE,CHIMBORAZO,-1.7333333333333334,-78.71666666666667
CALICHANA,EL ORO,-3.4,-79.81666666666666
CALIGUINA,AZUAY,-3.216666666666667,-79.55
CALLANCAY,AZUAY,-3.066666666666667,-78.76666666666667
CALLEJON,AZUAY,-3.05,-79.08333333333333
CALPI,CHIMBORAZO,-1.65,-78.73333333333333
CALUG,AZUAY,-2.9833333333333334,-78.73333333333333
CALUGURO,EL ORO,-3.5166666666666666,-79.88333333333334
CALVARIO,AZUAY,-3.2666666666666666,-79.3
CALVARIO,LOJA,-3.85,-79.38333333333334
CALVARIO,AZUAY,-2.7666666666666666,-78.75
CALVARIO,EL ORO,-3.5,-79.91666666666667
CAMARA,AZUAY,-3.3333333333333335,-79.15
CAMARONES,ESMERALDAS,0.9833333333333333,-79.56666666666666
CAMARONES,LOJA,-4.416666666666667,-80.38333333333334
CAMBANA,ZAMORA-CHINCHIPE,-3.658888888888889,-78.90833333333335
CAMILO PONCE ENRIQUEZ,AZUAY,-3.05,-79.73333333333333
CAMPAMENTO AGUA COLORADA,ZAMORA-CHINCHIPE,-4.577222222222222,-78.66333333333334
CAMPAMENTO ARAGUNDI,GUAYAS,-2.783333333333333,-79.7
CAMPAMENTO EL ABANDONO,ZAMORA-CHINCHIPE,-4.610555555555555,-78.69972222222222
CAMPAMENTO EL DILUVIO,ZAMORA-CHINCHIPE,-4.619444444444445,-78.72472222222223
CAMPAMENTO EL MIRADOR,ZAMORA-CHINCHIPE,-4.639166666666666,-78.77
CAMPAMENTO LA HAMBRUNA,ZAMORA-CHINCHIPE,-4.541944444444444,-78.66222222222223
CAMPAMENTO LA PAMPA,ZAMORA-CHINCHIPE,-4.556111111111111,-78.66027777777778
CAMPAMENTO QUINONES,GUAYAS,-2.7666666666666666,-79.73333333333333
CAMPAMENTO RUISENOR,ZAMORA-CHINCHIPE,-4.523333333333333,-78.65777777777778
CAMPANAGUAICO,AZUAY,-2.9,-79.1
CAMPANAKA ENTZA,MORONA-SANTIAGO,-3.4975,-78.49138888888889
CAMPANITA,ESMERALDAS,1.388611111111111,-78.77777777777777
CAMPO ALEGRE,ESMERALDAS,0.9,-79.78333333333333
CAMPO ALEGRE,GUAYAS,-2.8,-80.13333333333334
CAMPOZANO,MANABí,-1.5833333333333335,-80.4
CANAAN,GUAYAS,-1.9,-80.0
CANALAURCO,AZUAY,-3.4,-79.05
CANALES,LOS RíOS,-1.3333333333333333,-79.81666666666666
CANANGUCHAL,SUCUMBIOS,0.26666666666666666,-76.81666666666666
CANAR,CAñAR,-2.55,-78.93333333333334
CANARIA,GUAYAS,-1.3166666666666667,-79.85
CANARIBAMBA,AZUAY,-3.1666666666666665,-79.3
CANARO,AZUAY,-2.9,-79.1
CANAS,EL ORO,-3.8333333333333335,-80.08333333333333
CANAS,MANABí,-1.1833333333333333,-80.8
CANAVERAL,GUAYAS,-1.3166666666666667,-79.9
CANAVERAL,MANABí,0.21666666666666667,-80.03333333333333
CANAVERAL,LOS RíOS,-1.7,-79.43333333333334
CANAVERAL DE AFUERA,LOS RíOS,-1.7333333333333334,-79.48333333333333
CANCAY,AZUAY,-2.9,-78.73333333333333
CANCHAGUA,COTOPAXI,-0.8,-78.68333333333334
CANCHIMALERO,ESMERALDAS,1.2625,-78.99805555555555
CANDELARIA,GUAYAS,-1.9,-79.86666666666666
CANDELARIA,GUAYAS,-2.033333333333333,-79.93333333333334
CANELOS,PASTAZA,-1.5833333333333335,-77.75
CANELOS,MORONA-SANTIAGO,-2.8333333333333335,-77.95
CANGAHUA,PICHINCHA,-0.06666666666666667,-78.16666666666667
CANGAIMINE,MORONA-SANTIAGO,-2.3166666666666664,-77.66666666666667
CANGAS,MORONA-SANTIAGO,-2.914722222222222,-77.9225
CANGO,LOJA,-4.333333333333333,-79.56666666666666
CANGONAMA,LOJA,-3.966666666666667,-79.7
CANGREJO,GUAYAS,-2.1333333333333333,-80.76666666666667
CANGURACA,LOJA,-4.216666666666667,-79.86666666666666
CANI,CHIMBORAZO,-1.8,-78.98333333333333
CANITAS,GUAYAS,-2.0,-80.58333333333333
CANITAS,MANABí,-0.85,-80.48333333333333
CANITAS,MANABí,-1.5,-80.51666666666667
CANOA,MANABí,-0.4666666666666667,-80.45
CANOA,AZUAY,-2.8666666666666667,-79.38333333333334
CANONERO,PICHINCHA,-0.23333333333333334,-79.21666666666667
CANTAGALLO,AZUAY,-2.8,-78.83333333333333
CANTAGALLO,GUAYAS,-2.25,-79.83333333333333
CANTAGALLO,MANABí,-1.3,-80.73333333333333
CANTARAMA,ESMERALDAS,1.0833333333333333,-78.98611111111111
CANTZAMA,ZAMORA-CHINCHIPE,-3.855,-78.88472222222222
CANUTO,MANABí,-0.8,-80.11666666666666
CANZACOTO,PICHINCHA,-0.43333333333333335,-78.75
CAPADINO ENTZA,MORONA-SANTIAGO,-2.1166666666666667,-77.8
CAPAILOMA,PICHINCHA,0.16666666666666666,-78.08333333333333
CAPAREAC,AZUAY,-3.066666666666667,-78.78333333333333
CAPAS,LOJA,-4.15,-80.31666666666666
CAPIHUARA,ORELLANA,-0.48333333333333334,-77.23333333333333
CAPILLA MAUTA,AZUAY,-3.466666666666667,-79.16666666666667
CAPILLAPAMBA,AZUAY,-2.9166666666666665,-78.78333333333333
CAPIRO,EL ORO,-3.7666666666666666,-79.71666666666667
CAPITAN AUGOSTO RIVADENEIRA,ORELLANA,-0.6166666666666667,-75.88333333333334
CAPIZUN,MORONA-SANTIAGO,-3.061111111111111,-78.04916666666666
CAPLE,ESMERALDAS,0.5833333333333334,-79.55
CAPONE,GUAYAS,-1.9833333333333334,-79.78333333333333
CAPULI CHICO,CARCHI,0.5666666666666667,-77.83333333333333
CAPULICRIN,AZUAY,-2.75,-78.76666666666667
CAPUR,LOJA,-3.8333333333333335,-79.23333333333333
CAPZHUA,AZUAY,-2.9,-78.75
CAPZOL,CHIMBORAZO,-2.3,-78.91666666666667
CARACOL,LOS RíOS,-1.6666666666666665,-79.43333333333334
CARANANGO,LOJA,-4.25,-79.26666666666667
CARANQUI,IMBABURA,0.31666666666666665,-78.13333333333334
CARBILLO,EL ORO,-3.533333333333333,-80.2
CARBONADA,GUAYAS,-1.9166666666666665,-79.7
CARCABON,EL ORO,-3.6333333333333333,-80.2
CARGALCHINA,CAñAR,-2.55,-79.23333333333333
CARGUE,CAñAR,-2.5833333333333335,-79.31666666666666
CARIACO,PICHINCHA,0.11666666666666667,-78.66666666666667
CARIACU,PICHINCHA,0.08333333333333333,-78.1
CARIACU,AZUAY,-2.8666666666666667,-78.91666666666667
CARIAMANGA,SUCUMBIOS,0.025277777777777777,-76.99222222222222
CARIAMANGA,LOJA,-4.333333333333333,-79.55
CARISHAO,AZUAY,-2.8666666666666667,-78.95
CARLOS JULIO AROSEMENA TOLA,NAPO,-1.2,-77.85
CARLOS ORDONEZ LAZO,AZUAY,-2.8166666666666664,-78.76666666666667
CARMELA,GUAYAS,-1.7166666666666668,-80.0
CARMELA,PICHINCHA,-0.21666666666666667,-79.23333333333333
CARMELA,CAñAR,-2.6333333333333333,-78.9
CARMELA,GUAYAS,-2.1,-79.66666666666667
CARMELA,LOS RíOS,-1.9166666666666665,-79.68333333333334
CARMELA,PICHINCHA,-0.65,-79.0
CARMELITA,GUAYAS,-1.9333333333333333,-79.66666666666667
CARMELO,LOJA,-3.9833333333333334,-79.71666666666667
CARMELO,PICHINCHA,-0.4166666666666667,-78.41666666666667
CARMEN,PICHINCHA,-0.36666666666666664,-78.48333333333333
CARMEN,GUAYAS,-2.1666666666666665,-79.66666666666667
CARMEN LEONOR,GUAYAS,-2.1,-79.7
CAROLINA,GUAYAS,-2.216666666666667,-80.93333333333334
CAROLINA,IMBABURA,0.7833333333333333,-78.3
CAROLINA,GUAYAS,-2.05,-79.73333333333333
CARONDELET,ESMERALDAS,1.126111111111111,-78.76222222222222
CARRIZAL,LOJA,-4.05,-80.03333333333333
CARRIZAL,GUAYAS,-2.3333333333333335,-80.05
CARRIZAL,GUAYAS,-2.1166666666666667,-80.46666666666667
CARRIZAL,GUAYAS,-2.066666666666667,-79.53333333333333
CARRIZAL,MANABí,0.2833333333333333,-80.01666666666667
CARRIZAL,GUAYAS,-1.9166666666666665,-80.68333333333334
CARRIZAL,GUAYAS,-1.8833333333333333,-79.7
CARRIZAL,GUAYAS,-1.85,-80.13333333333334
CASACAY,EL ORO,-3.3333333333333335,-79.76666666666667
CASADEL,AZUAY,-3.3666666666666667,-79.13333333333334
CASCAJAL,GUAYAS,-1.7833333333333332,-80.18333333333334
CASCAJAL,GUAYAS,-2.066666666666667,-79.93333333333334
CASCAJO,PICHINCHA,-0.08333333333333333,-78.16666666666667
CASCARILLA,LOS RíOS,-1.1833333333333333,-79.5
CASCOL,MANABí,-1.6666666666666665,-80.46666666666667
CASERIO,ORELLANA,-0.8,-76.25
CASERIO VENCESLAO,ESMERALDAS,0.9666666666666667,-78.96666666666667
CASHAPAMBA,PICHINCHA,-0.35,-78.55
CASHAPATA,AZUAY,-2.9,-79.03333333333333
CASHARUM,LOJA,-4.1,-79.93333333333334
CASHATOMA,LOJA,-3.9833333333333334,-79.51666666666667
CASHUIN,CAñAR,-2.466666666666667,-79.06666666666666
CASIGUANA,GUAYAS,-2.1333333333333333,-79.78333333333333
CASITA,ESMERALDAS,1.3833333333333333,-78.88333333333334
CASITA,ESMERALDAS,0.6833333333333333,-80.08333333333333
CASITAS,PICHINCHA,-3.3333333333333335,-79.58333333333333
CASPA YACU,PASTAZA,-2.3333333333333335,-76.73333333333333
CASPI-CORRAL,AZUAY,-3.066666666666667,-78.98333333333333
CASTELNOVO,ESMERALDAS,0.8833333333333333,-79.81666666666666
CATACOCHA,LOJA,-4.066666666666666,-79.63333333333334
CATACUPAMBA,PICHINCHA,0.11666666666666667,-78.16666666666667
CATAMAILLO,LOJA,-4.35,-80.21666666666667
CATAMAYO,LOJA,-3.9833333333333334,-79.35
CATAMBAS,LOJA,-4.4,-80.46666666666667
CATANAS,LOJA,-4.066666666666666,-80.4
CATARAMA,LOS RíOS,-1.5833333333333335,-79.46666666666667
CATIMBO,TUNGURAHUA,-1.3166666666666667,-78.56666666666666
CAUCHICHE,GUAYAS,-2.75,-80.21666666666667
CAUQUIL,AZUAY,-3.183333333333333,-79.23333333333333
CAUTIVO,GUAYAS,-2.216666666666667,-80.9
CAVERTUL,CAñAR,-2.6166666666666667,-78.66666666666667
CAVINO,GUAYAS,-2.216666666666667,-80.35
CAYAGAMA,SUCUMBIOS,0.010555555555555556,-77.38583333333334
CAYAMBE,PICHINCHA,0.05,-78.13333333333334
CAYAPAS,ESMERALDAS,0.8666666666666667,-78.95
CAYARCA,EL ORO,-3.466666666666667,-80.15
CAZADEROS,LOJA,-4.083333333333333,-80.48333333333333
CEBADAS,CHIMBORAZO,-1.9,-78.61666666666666
CEBOLLAR,AZUAY,-2.8666666666666667,-79.01666666666667
CECEL,CHIMBORAZO,-1.8833333333333333,-78.66666666666667
CECILIA,GUAYAS,-2.0,-79.96666666666667
CEDROPAMBA,CAñAR,-2.533333333333333,-79.33333333333333
CEDROPAMBA,AZUAY,-2.8,-78.66666666666667
CEIBA,GUAYAS,-2.216666666666667,-79.9
CEIBAL,LOJA,-4.45,-79.71666666666667
CEIBO MOCHO,LOJA,-4.2,-80.16666666666667
CEIBO PAMBA,LOJA,-4.233333333333333,-79.35
CEILAN,PASTAZA,-1.6,-75.66666666666667
CELEL,AZUAY,-2.6833333333333336,-78.65
CELEN,LOJA,-3.5666666666666664,-79.26666666666667
CELICA,LOJA,-4.116666666666666,-79.95
CELIS,AZUAY,-2.9333333333333336,-79.53333333333333
CENTINELA,SUCUMBIOS,0.016666666666666666,-75.98333333333333
CENTINELA,GUAYAS,-2.2333333333333334,-80.55
CENTRAL,SUCUMBIOS,-0.2,-76.65
CENTRO CUSHAPUCUS,MORONA-SANTIAGO,-3.0349999999999997,-78.0261111111111
CENTRO KUNKUK',MORONA-SANTIAGO,-3.312777777777778,-78.22166666666666
CENTRO MIASI,ZAMORA-CHINCHIPE,-3.5505555555555555,-78.57638888888889
CENTRO NUMPATKAIM',MORONA-SANTIAGO,-3.2847222222222223,-78.2388888888889
CENTRO SAN JOSE,MORONA-SANTIAGO,-3.441666666666667,-78.47
CENTRO SHUARA,ZAMORA-CHINCHIPE,-3.8488888888888892,-78.90027777777779
CENTRO SHUARA DE MANCHINAZA,ZAMORA-CHINCHIPE,-3.613888888888889,-78.53111111111112
CENTRO SHUARA DEL QUIMI,ZAMORA-CHINCHIPE,-3.6119444444444446,-78.55749999999999
CENTRO SHUARA KUNCHAIM,MORONA-SANTIAGO,-3.529166666666667,-78.59944444444444
CENTRO SHUARA LA INMACULADA,MORONA-SANTIAGO,-3.5236111111111112,-78.56277777777777
CENTRO TIMKIMINTS,MORONA-SANTIAGO,-3.253888888888889,-78.22611111111111
CERA,LOJA,-3.9166666666666665,-79.28333333333333
CERCO PATA,CAñAR,-2.4833333333333334,-79.13333333333334
CERECITA,GUAYAS,-2.35,-80.28333333333333
CEREZAL,GUAYAS,-2.0166666666666666,-80.6
CERRITO,GUAYAS,-1.9,-79.7
CERRITO,LOS RíOS,-1.6166666666666667,-79.51666666666667
CERRITOS,GUAYAS,-2.25,-79.7
CERRO ALTO,AZUAY,-2.9333333333333336,-78.86666666666666
CERRO ALTO,GUAYAS,-1.6333333333333333,-80.1
CERRO MILAGROS,LOJA,-4.083333333333333,-80.15
CERRO NEGRO,AZUAY,-3.2333333333333334,-79.6
CERRO VERDE,LOJA,-4.15,-80.25
CEVALLOS,TUNGURAHUA,-1.35,-78.61666666666666
CHACAHUIZHO,AZUAY,-3.4166666666666665,-79.13333333333334
CHACAN,CHIMBORAZO,-1.75,-78.73333333333333
CHACANCE,GUAYAS,-1.9166666666666665,-79.68333333333334
CHACANCEO,AZUAY,-2.65,-79.35
CHACAPAMBA,AZUAY,-2.9,-78.76666666666667
CHACARRUMI,AZUAY,-2.9,-79.05
CHACAUCO,PICHINCHA,-1.45,-78.48333333333333
CHACRAS,EL ORO,-3.55,-80.2
CHADE,MANABí,-1.2833333333333332,-80.56666666666666
CHAGUAN,AZUAY,-3.15,-79.01666666666667
CHAGUARACO,PICHINCHA,0.23333333333333334,-78.78333333333333
CHAGUARHUAYCO,LOJA,-4.016666666666667,-80.31666666666666
CHAGUARLOMA,AZUAY,-2.8833333333333333,-78.75
CHAGUARPAMBA,LOJA,-3.85,-79.65
CHAHUAR HUAYEV,LOJA,-4.183333333333334,-80.15
CHALANGA,LOJA,-3.95,-79.7
CHALCALO,AZUAY,-3.2666666666666666,-79.38333333333334
CHALCAPA,AZUAY,-3.2333333333333334,-79.2
CHALCUR,CAñAR,-2.7333333333333334,-78.86666666666666
CHALPI,NAPO,-0.36666666666666664,-78.06666666666666
CHAMBAC,TUNGURAHUA,-1.35,-78.53333333333333
CHAMBARANGO,LOJA,-4.35,-80.26666666666667
CHAMBIRA,PASTAZA,-1.6,-77.6
CHAMBO,CHIMBORAZO,-1.7333333333333334,-78.58333333333333
CHAMUCATE,MANABí,-1.25,-80.38333333333334
CHANALA,MORONA-SANTIAGO,-2.2,-78.35
CHANANA,GUAYAS,-1.7,-80.0
CHANCAMA,ESMERALDAS,0.6,-79.55
CHANCHAS,PICHINCHA,-0.2833333333333333,-78.5
CHANCHUN,CAñAR,-2.7666666666666666,-78.91666666666667
CHANDIL,CAñAR,-2.7333333333333334,-78.81666666666666
CHANDUY,GUAYAS,-2.4166666666666665,-80.66666666666667
CHANGAIMINA,LOJA,-4.216666666666667,-79.51666666666667
CHANGUARAL,ESMERALDAS,1.3808333333333334,-78.86805555555554
CHANQUINIMA,LOJA,-4.2,-79.5
CHANTACO,LOJA,-3.8833333333333333,-79.33333333333333
CHANTILIN,COTOPAXI,-0.85,-78.65
CHAPAR,AZUAY,-3.0166666666666666,-79.03333333333333
CHAPEGUAICO,AZUAY,-2.7333333333333334,-78.73333333333333
CHAPETON,AZUAY,-2.85,-78.8
CHAPINTZA,ZAMORA-CHINCHIPE,-3.7669444444444444,-78.87083333333332
CHAPIZA,MORONA-SANTIAGO,-2.8316666666666666,-77.89555555555556
CHAPULO,LOS RíOS,-1.7333333333333334,-79.6
CHAQUICUNA,LOJA,-3.9166666666666665,-79.41666666666667
CHAQUILCAY,AZUAY,-2.9,-78.85
CHAQUINAL,LOJA,-4.033333333333333,-80.05
CHAQUINO,LOJA,-4.183333333333334,-80.4
CHAQUIRO,LOJA,-4.35,-80.31666666666666
CHARACAY,CAñAR,-2.5166666666666666,-79.0
CHARAPA,SUCUMBIOS,0.19777777777777777,-76.81694444444445
CHARAPA JUNTAI,MORONA-SANTIAGO,-2.513888888888889,-77.55583333333333
CHARAPOTO,MANABí,-0.8333333333333334,-80.48333333333333
CHARCO LARGO,CARCHI,1.1333333333333333,-78.5
CHAROHUAINA,LOJA,-3.5833333333333335,-79.23333333333333
CHARON,AZUAY,-3.033333333333333,-78.81666666666666
CHASQUI,COTOPAXI,-0.7,-78.58333333333333
CHASQUIN,AZUAY,-2.966666666666667,-78.85
CHAU,MORONA-SANTIAGO,-2.8211111111111107,-77.76916666666666
CHAUCAN,AZUAY,-2.95,-78.7
CHAUCHA,AZUAY,-2.9,-79.4
CHAUCHA,CAñAR,-2.45,-79.0
CHAULIAYACU,AZUAY,-2.9833333333333334,-79.03333333333333
CHAULLA,AZUAY,-3.2333333333333334,-79.21666666666667
CHAULLAMBA,AZUAY,-2.85,-78.9
CHAUPI,PICHINCHA,-0.6,-78.63333333333334
CHAUPI ESTANCIA,PICHINCHA,-0.03333333333333333,-78.25
CHAUPI LOMA,PICHINCHA,0.1,-78.2
CHAUPIHACIENDA,AZUAY,-2.9833333333333334,-78.9
CHAUPITRANCA,AZUAY,-3.0166666666666666,-79.56666666666666
CHAUPITRANCA,GUAYAS,-3.05,-79.76666666666667
CHAVALULA,AZUAY,-2.9333333333333336,-78.75
CHAVAY,CAñAR,-2.783333333333333,-78.83333333333333
CHAVEZ,MANABí,-0.7,-80.31666666666666
CHAVEZPAMBA,PICHINCHA,0.13333333333333333,-78.38333333333334
CHECA,PICHINCHA,-0.13333333333333333,-78.31666666666666
CHECA,AZUAY,-2.783333333333333,-79.0
CHECO,LOJA,-4.483333333333333,-79.5
CHECO,EL ORO,-3.45,-80.03333333333333
CHEQUERO,AZUAY,-3.4333333333333336,-79.15
CHIBULEO,TUNGURAHUA,-1.3,-78.71666666666667
CHICAL,CARCHI,1.0333333333333334,-78.23333333333333
CHICAL,CAñAR,-2.4,-78.96666666666667
CHICAN,AZUAY,-2.8166666666666664,-78.75
CHICANA,ZAMORA-CHINCHIPE,-3.7241666666666666,-78.74333333333334
CHICANA ALTO,ZAMORA-CHINCHIPE,-3.707777777777778,-78.76333333333334
CHICANA BAJO,ZAMORA-CHINCHIPE,-3.749722222222222,-78.73277777777778
CHICAPTIRE,AZUAY,-2.9333333333333336,-79.05
CHICHE,EL ORO,-3.3333333333333335,-79.66666666666667
CHICHES,ZAMORA-CHINCHIPE,-3.641388888888889,-78.5961111111111
CHICHIROTA,PASTAZA,-2.3833333333333333,-76.65
CHICHIS,MORONA-SANTIAGO,-3.0233333333333334,-77.96805555555555
CHICO TOMALON,PICHINCHA,0.0,-78.25
CHICON,CAñAR,-2.4333333333333336,-78.98333333333333
CHICTICAY,AZUAY,-2.8666666666666667,-78.83333333333333
CHIGLEDEL,CAñAR,-2.5666666666666664,-79.18333333333334
CHIGSHIGUIN,CAñAR,-2.7333333333333334,-78.85
CHIGUAN,AZUAY,-3.1166666666666667,-79.53333333333333
CHIGUANGO,LOJA,-3.8833333333333333,-79.56666666666666
CHIGUAZA,MORONA-SANTIAGO,-2.0166666666666666,-77.96666666666667
CHIGUAZA,MORONA-SANTIAGO,-1.9333333333333333,-77.83333333333333
CHIGUILPE,PICHINCHA,-0.26666666666666666,-79.1
CHIGUINDA,MORONA-SANTIAGO,-3.3,-78.68333333333334
CHIGUIPE,PICHINCHA,-0.05,-78.83333333333333
CHILA,MANABí,-0.11666666666666667,-80.06666666666666
CHILCAPAMBA,AZUAY,-2.95,-78.96666666666667
CHILCHIL,CAñAR,-2.45,-79.16666666666667
CHILICAY,CAñAR,-2.25,-79.1
CHILINTOMO,GUAYAS,-1.9,-79.5
CHILLA,AZUAY,-3.35,-79.21666666666667
CHILLA,AZUAY,-2.95,-78.9
CHILLA,EL ORO,-3.466666666666667,-79.58333333333333
CHILLANES,BOLíVAR,-1.9333333333333333,-79.06666666666666
CHILLAVI,ESMERALDAS,1.087222222222222,-78.775
CHILLAVI DEL CEIBO,ESMERALDAS,1.0791666666666666,-78.81333333333333
CHILLOGALLO,PICHINCHA,-0.26666666666666666,-78.56666666666666
CHIMA,LOS RíOS,-1.9,-79.4
CHIMBA,PICHINCHA,0.13333333333333333,-78.05
CHIMBOCAL,ESMERALDAS,1.3,-78.83333333333333
CHIMBUCTA,MORONA-SANTIAGO,-2.3333333333333335,-77.43333333333334
CHIMBUZA,ZAMORA-CHINCHIPE,-3.776944444444444,-78.74555555555555
CHIMUL,AZUAY,-2.8166666666666664,-78.65
CHINAS,GUAYAS,-1.2333333333333334,-79.9
CHINCA,ESMERALDAS,0.7666666666666667,-79.58333333333333
CHINCHANGA,LOJA,-4.183333333333334,-79.73333333333333
CHINCHIN,TUNGURAHUA,-1.3833333333333333,-78.31666666666666
CHINCHIN LOMA,PICHINCHA,-0.05,-78.28333333333333
CHINCHINALES,IMBABURA,0.5166666666666667,-78.15
CHINCHIPE,GUAYAS,-2.2,-81.0
CHINGUAL,SUCUMBIOS,0.21666666666666667,-77.5
CHINGUAL,SUCUMBIOS,0.65,-77.58333333333333
CHINGUIL,PICHINCHA,-0.21666666666666667,-78.65
CHINI,COTOPAXI,-1.1166666666666667,-78.95
CHINIMBIMI,MORONA-SANTIAGO,-2.6333333333333333,-78.26666666666667
CHININTAHUA,TUNGURAHUA,-1.1,-78.55
CHINIPATA,AZUAY,-2.8166666666666664,-78.66666666666667
CHINKIANAS,MORONA-SANTIAGO,-2.941666666666667,-77.91916666666667
CHIPO,CHIMBORAZO,-1.9666666666666668,-78.75
CHIQUIAC,AZUAY,-2.8166666666666664,-78.76666666666667
CHIQUICHA,TUNGURAHUA,-1.2666666666666666,-78.53333333333333
CHIQUIL,EL ORO,-3.45,-79.6
CHIQUILPE,PICHINCHA,-0.03333333333333333,-78.58333333333333
CHIQUINTAD,AZUAY,-2.8166666666666664,-79.0
CHIRIBOGA,PICHINCHA,-0.25,-78.73333333333333
CHIRIN,CAñAR,-2.5833333333333335,-79.11666666666666
CHIRINCHE DE PAEZ,COTOPAXI,-1.0833333333333333,-78.65
CHISCHIGUIN,CAñAR,-2.7333333333333334,-78.85
CHITA,MANABí,-0.4666666666666667,-80.33333333333333
CHITAN,CARCHI,0.6333333333333333,-77.8
CHITO,ZAMORA-CHINCHIPE,-4.933333333333334,-79.05
CHITUCA,AZUAY,-3.0,-78.98333333333333
CHIVERIA,GUAYAS,-1.9666666666666668,-80.0
CHIVES,GUAYAS,-1.3,-79.83333333333333
CHIVILIN,AZUAY,-3.2666666666666666,-78.98333333333333
CHOBO,GUAYAS,-2.15,-79.63333333333334
CHOBSI,AZUAY,-3.05,-78.78333333333333
CHOCACORTA,LOJA,-3.533333333333333,-79.5
CHOCAR,AZUAY,-2.9333333333333336,-78.75
CHOCAR,CAñAR,-2.4,-78.96666666666667
CHOCAR,AZUAY,-3.0,-78.73333333333333
CHODAY,GUAYAS,-2.1666666666666665,-79.66666666666667
CHONE,MANABí,-0.6833333333333333,-80.1
CHONGON,GUAYAS,-2.2333333333333334,-80.06666666666666
CHONGONCITO,GUAYAS,-2.2333333333333334,-80.08333333333333
CHONTACRUZ,LOJA,-4.066666666666666,-79.2
CHONTADURO,ESMERALDAS,0.9333333333333333,-79.45
CHONTAL,MORONA-SANTIAGO,-2.783333333333333,-78.51666666666667
CHONTAMARCA,CAñAR,-2.4333333333333336,-79.1
CHONTAPAMBA,TUNGURAHUA,-1.4166666666666667,-78.48333333333333
CHONTAPUNTA,NAPO,-0.9,-77.33333333333333
CHORDELEG,AZUAY,-2.9333333333333336,-78.76666666666667
CHOROCOPTE,CAñAR,-2.5833333333333335,-78.95
CHORRERA,LOS RíOS,-1.8666666666666667,-79.58333333333333
CHORRO GRANDE,AZUAY,-3.1333333333333333,-79.16666666666667
CHORROBLANCO,AZUAY,-2.8166666666666664,-78.8
CHORROHUAICO,AZUAY,-3.066666666666667,-79.33333333333333
CHOTA,IMBABURA,0.4666666666666667,-78.06666666666666
CHUCAR,AZUAY,-3.0833333333333335,-78.76666666666667
CHUCCHILAN,COTOPAXI,-0.8,-78.91666666666667
CHUCHUCAN,CAñAR,-2.5833333333333335,-79.05
CHUCHUMBLEZA,MORONA-SANTIAGO,-3.5308333333333333,-78.53083333333333
CHUCHUN,CAñAR,-2.5166666666666666,-78.96666666666667
CHUGA,IMBABURA,0.38333333333333336,-77.9
CHUGCHILAN,COTOPAXI,-0.8,-78.91666666666667
CHUGUIN GRANDE,CAñAR,-2.5666666666666664,-78.88333333333334
CHULO,AZUAY,-2.716666666666667,-79.26666666666667
CHUMBELA,MORONA-SANTIAGO,-2.5666666666666664,-77.08333333333333
CHUMBELA,PASTAZA,-2.1,-77.41666666666667
CHUMBLIN,AZUAY,-3.183333333333333,-79.25
CHUMUNDE,ESMERALDAS,0.8333333333333334,-79.41666666666667
CHUNASANA,AZUAY,-3.283333333333333,-79.1
CHUNCHI,CHIMBORAZO,-2.283333333333333,-78.91666666666667
CHUNUCARI,AZUAY,-3.05,-78.78333333333333
CHUPADORES,EL ORO,-3.4,-80.2
CHUPIANZA,MORONA-SANTIAGO,-2.6833333333333336,-78.3
CHUQUE,GUAYAS,-1.7666666666666666,-79.8
CHUQUI,AZUAY,-3.1333333333333333,-79.48333333333333
CHUQUIPOGYO,CHIMBORAZO,-1.55,-78.83333333333333
CHUQUIRIBAMBA,LOJA,-3.8333333333333335,-79.33333333333333
CHURA,ESMERALDAS,0.6,-79.48333333333333
CHURUGUDO,AZUAY,-3.05,-79.06666666666666
CHURUMANGA,TUNGURAHUA,-1.2833333333333332,-78.56666666666666
CHURUTE,GUAYAS,-2.4333333333333336,-79.65
CIA CAYAPAS,ESMERALDAS,1.3025,-78.79138888888889
CIANO,LOJA,-3.9,-79.96666666666667
CIENAGA DE AFUERA,GUAYAS,-2.3333333333333335,-80.36666666666666
CIENEGA,MANABí,-0.7666666666666667,-80.18333333333334
CIENEGA,GUAYAS,-2.3166666666666664,-80.4
CIENEGA REDONDA,GUAYAS,-1.8666666666666667,-80.1
CIMIENTOS,CAñAR,-2.4166666666666665,-79.15
CINCO DE JUNIO,ESMERALDAS,0.95,-78.78333333333333
CINCO HERMANAS,GUAYAS,-2.0833333333333335,-79.71666666666667
CIRUELAS,LOJA,-4.283333333333333,-80.13333333333334
CITACAR,CAñAR,-2.6,-78.93333333333334
CIUDADELA COSTA DE ORO,MANABí,-2.225,-80.93333333333334
CIUDADELA SANTA MARTHA,MANABí,-0.9583333333333333,-80.74444444444444
CLEMENCIA,ESMERALDAS,0.8833333333333333,-79.63333333333334
CLEMENCIA,TUNGURAHUA,-1.4166666666666667,-78.5
CLEMENCIA,GUAYAS,-1.6833333333333333,-79.83333333333333
CLEMENCIA,LOS RíOS,-1.35,-79.58333333333333
CLEMENTINA,GUAYAS,-1.85,-79.86666666666666
CLEMENTINA,GUAYAS,-2.033333333333333,-79.76666666666667
CLEOPATRA,GUAYAS,-1.9333333333333333,-79.78333333333333
CLEOTILDE,GUAYAS,-1.8666666666666667,-79.73333333333333
COANGOS,MORONA-SANTIAGO,-3.4975,-78.23111111111112
COANGOS,MORONA-SANTIAGO,-3.0994444444444444,-78.22527777777778
COAQUE,MANABí,0.0,-80.1
COCA,AZUAY,-3.05,-79.66666666666667
COCHA,PICHINCHA,-0.3,-78.4
COCHAHUAICO,CAñAR,-2.7333333333333334,-78.88333333333334
COCHALOMA,AZUAY,-2.8666666666666667,-78.76666666666667
COCHALOMA,LOJA,-3.9333333333333336,-79.31666666666666
COCHAPAMBA,SUCUMBIOS,0.05333333333333334,-76.96361111111112
COCHAPAMBA,AZUAY,-2.95,-78.95
COCHAPAMBA,AZUAY,-2.9833333333333334,-78.88333333333334
COCHAPATA,AZUAY,-3.4,-79.06666666666666
COCHAQUINGU,PASTAZA,-1.3833333333333333,-76.95
COCHATOS,AZUAY,-3.0166666666666666,-79.03333333333333
COFRADIA,LOJA,-4.6,-79.5
COJIMIES,MANABí,0.36666666666666664,-80.03333333333333
COJITAMBO,CAñAR,-2.75,-78.86666666666666
COLA,LOJA,-3.95,-79.56666666666666
COLAISACA,LOJA,-4.3,-79.66666666666667
COLANGA,LOJA,-4.4,-79.7
COLAY,LOJA,-4.083333333333333,-80.0
COLEGIO,CAñAR,-2.55,-78.91666666666667
COLIMES,GUAYAS,-1.55,-80.01666666666667
COLLAY CHICO,AZUAY,-2.8666666666666667,-78.61666666666666
COLLAY GRANDE,AZUAY,-2.9,-78.65
COLON,ESMERALDAS,0.7333333333333333,-79.06666666666666
COLON,MANABí,-1.1166666666666667,-80.41666666666667
COLON ELOY ALFARO,ESMERALDAS,1.021388888888889,-78.91000000000001
COLONCHE,GUAYAS,-2.0166666666666666,-80.66666666666667
COLORADO,GUAYAS,-1.85,-79.98333333333333
COLORADO,MANABí,-1.0166666666666666,-80.68333333333334
COLORADO,GUAYAS,-1.0833333333333333,-79.65
COLTAPAMBA,CHIMBORAZO,-1.7333333333333334,-78.75
COLUMBE,CHIMBORAZO,-1.8833333333333333,-78.7
COMPANIA,AZUAY,-2.8833333333333333,-78.96666666666667
COMPONA,GUAYAS,-1.8,-79.88333333333334
COMPUD,CHIMBORAZO,-2.3333333333333335,-78.91666666666667
COMUNA CHUSCUYACU,SUCUMBIOS,0.04833333333333333,-77.39222222222223
COMUNIDAD DE SALAMALA,COTOPAXI,-0.85,-78.71666666666667
CONAMBO,PASTAZA,-1.8666666666666667,-76.78333333333333
CONCEPCION,ESMERALDAS,1.0366666666666668,-78.82916666666667
CONCEPCION,ESMERALDAS,0.5166666666666667,-79.95
CONCEPCION,LOS RíOS,-1.75,-79.71666666666667
CONCEPCION,ORELLANA,-0.8,-77.41666666666667
CONCHAY,MORONA-SANTIAGO,-2.778611111111111,-77.80055555555555
CONCORDIA,GUAYAS,-2.7666666666666666,-79.91666666666667
CONDOLANGA,LOJA,-4.483333333333333,-79.76666666666667
CONDOR,GUAYAS,-2.1,-79.65
CONDOR SAMANA,ZAMORA-CHINCHIPE,-3.6377777777777776,-78.99111111111111
CONDORAHUA,TUNGURAHUA,-1.2833333333333332,-78.56666666666666
CONDUCTA,GUAYAS,-2.183333333333333,-79.5
CONEJO,ESMERALDAS,0.13333333333333333,-79.55
CONGA,PICHINCHA,-0.016666666666666666,-78.6
CONGO,GUAYAS,-1.2666666666666666,-79.86666666666666
CONGUILLO,GUAYAS,-1.15,-79.76666666666667
CONGUIME,MORONA-SANTIAGO,-3.5058333333333334,-78.5461111111111
CONOCOTO,PICHINCHA,-0.3,-78.48333333333333
CONONACO,PASTAZA,-1.5166666666666666,-75.6
CONSTANCIA,PICHINCHA,-0.3333333333333333,-79.43333333333334
CONSTANTINO FERNANDEZ,TUNGURAHUA,-1.2,-78.65
CONSUELO,GUAYAS,-1.55,-79.9
CONSUMULO,PICHINCHA,-0.26666666666666666,-79.35
CONVENTO,MANABí,-0.2833333333333333,-80.05
CONVENTO,GUAYAS,-1.9166666666666665,-79.6
COPAL,MORONA-SANTIAGO,-2.6833333333333336,-78.4
COPCHAL,AZUAY,-2.8166666666666664,-78.73333333333333
COPRADIA,LOJA,-4.25,-79.73333333333333
COPTE,AZUAY,-2.783333333333333,-79.36666666666666
COQUITO,ESMERALDAS,0.6908333333333333,-80.13472222222222
CORAZARI,AZUAY,-3.2333333333333334,-79.26666666666667
CORDERO PALACIOS,AZUAY,-3.0166666666666666,-78.78333333333333
CORONA,LOS RíOS,-1.6333333333333333,-79.5
CORONA,GUAYAS,-1.95,-79.91666666666667
CORONEL CARLOS CONCHA TORRES,ESMERALDAS,0.7166666666666667,-79.68333333333334
CORONEL LORENZO GARAICOA,GUAYAS,-2.05,-79.43333333333334
CORONEL MARCELINO MARIDUENA,GUAYAS,-2.2,-79.41666666666667
CORONO,MANABí,-0.75,-80.43333333333334
COROZAL,LOS RíOS,-1.6666666666666665,-79.51666666666667
COROZOS,GUAYAS,-1.7666666666666666,-79.95
CORRAL DEL SENOR,LOJA,-4.15,-79.98333333333333
CORRAL GUAYCO,AZUAY,-3.15,-79.2
CORRAL PAMBA,ZAMORA-CHINCHIPE,-3.5733333333333333,-78.96027777777778
CORRALITO,GUAYAS,-2.716666666666667,-79.95
CORRALITO,EL ORO,-3.35,-79.91666666666667
CORRALITO,GUAYAS,-2.9333333333333336,-79.93333333333334
CORRALPAMBA,AZUAY,-2.8333333333333335,-78.78333333333333
CORREA URCU,CAñAR,-2.55,-78.93333333333334
CORREGIDOR,LOJA,-4.366666666666666,-80.3
CORRIENTE,ESMERALDAS,0.5,-79.96666666666667
CORTIJO,PICHINCHA,-0.36666666666666664,-78.46666666666667
COSACOPTE,AZUAY,-2.966666666666667,-78.8
COSALAMI,LOJA,-4.466666666666667,-79.73333333333333
COSANGA,NAPO,-0.6,-77.86666666666666
COSTA AZUL,NAPO,-1.1,-77.8
COSTA RICA,EL ORO,-3.3333333333333335,-80.25
COTACACHI,IMBABURA,0.3,-78.26666666666667
COTACOCHA,ORELLANA,-0.75,-75.55
COTALO,TUNGURAHUA,-1.4166666666666667,-78.5
COTAPINO,ORELLANA,-0.7,-77.46666666666667
COTO CHICTA,ORELLANA,-0.7166666666666667,-75.56666666666666
COTOCOLLAO,PICHINCHA,-0.11666666666666667,-78.5
COTOGCHOA,PICHINCHA,-0.38333333333333336,-78.5
COTOSAZ,PASTAZA,-2.033333333333333,-77.5
COTUNDO,NAPO,-0.8833333333333333,-77.8
CRISTAL,AZUAY,-3.1333333333333333,-79.23333333333333
CRISTOBAL COLON,CARCHI,0.6166666666666667,-77.8
CRUCITA,MANABí,-0.8666666666666667,-80.53333333333333
CRUZ CHICTA,NAPO,-0.8,-77.2
CRUZ DE GUANABANO,GUAYAS,-1.7333333333333334,-80.38333333333334
CRUZ DEL HUERTO,LOJA,-4.416666666666667,-79.85
CRUZ MARIA,AZUAY,-2.7666666666666666,-79.48333333333333
CRUZLOMA,AZUAY,-2.9166666666666665,-78.96666666666667
CRUZLOMA,AZUAY,-2.966666666666667,-78.76666666666667
CRUZLOMA,AZUAY,-3.1666666666666665,-79.25
CRUZPAMBA,LOJA,-4.166666666666667,-80.01666666666667
CRUZPAMBA,AZUAY,-2.8,-79.46666666666667
CUAJARA,IMBABURA,0.65,-78.16666666666667
CUAMBO,LOJA,-4.583333333333333,-79.45
CUAMBO,IMBABURA,0.5833333333333334,-78.16666666666667
CUARPANCHE,AZUAY,-2.8,-79.01666666666667
CUARTEGURO,EL ORO,-3.466666666666667,-79.51666666666667
CUASHA,PASTAZA,-1.8833333333333333,-77.8
CUATRO ESQUINAS,CHIMBORAZO,-1.5666666666666667,-78.73333333333333
CUATRO HERMANAS,GUAYAS,-2.1666666666666665,-79.93333333333334
CUBE,ESMERALDAS,0.5833333333333334,-79.63333333333334
CUBIJIES,CHIMBORAZO,-1.65,-78.58333333333333
CUBILLIN,CHIMBORAZO,-1.8333333333333335,-78.41666666666667
CUCHICORRAL,LOJA,-4.583333333333333,-79.43333333333334
CUCHIL,AZUAY,-2.9166666666666665,-78.75
CUCHILLA ALTA,EL ORO,-3.6666666666666665,-79.76666666666667
CUCHILOMA,AZUAY,-3.15,-79.21666666666667
CUCHIPAMBA,AZUAY,-3.05,-78.78333333333333
CUCHIPIRCA,AZUAY,-3.1333333333333333,-79.15
CUCHIPIRCA,AZUAY,-3.4333333333333336,-79.11666666666666
CUCHUCUN,CAñAR,-2.55,-78.93333333333334
CUCUY,MANABí,-0.45,-80.11666666666666
CUELLAJE ALTO,ESMERALDAS,0.5166666666666667,-78.83333333333333
CUEMBI,SUCUMBIOS,0.36666666666666664,-76.41666666666667
CUENCA,AZUAY,-2.8833333333333333,-78.98333333333333
CUIPAMBA,LOJA,-3.65,-79.26666666666667
CUITUM,CAñAR,-2.6833333333333336,-78.9
CULANTROPAMBA,PICHINCHA,0.05,-78.71666666666667
CULASTI,AZUAY,-3.15,-79.0
CULCUL,AZUAY,-2.85,-78.76666666666667
CULEBRILLAS,AZUAY,-2.783333333333333,-78.66666666666667
CULQUI,AZUAY,-2.8833333333333333,-79.01666666666667
CULTICAY,AZUAY,-2.8,-78.76666666666667
CUMANDA,MORONA-SANTIAGO,-1.45,-78.13333333333334
CUMANDO,CAñAR,-2.216666666666667,-79.11666666666666
CUMAY ALTO,ZAMORA-CHINCHIPE,-4.022777777777778,-78.82388888888889
CUMBARATZA,ZAMORA-CHINCHIPE,-3.9905555555555554,-78.86305555555555
CUMBAYA,PICHINCHA,-0.2,-78.43333333333334
CUMBE,AZUAY,-3.0833333333333335,-79.01666666666667
CUNCATE,CAñAR,-2.6166666666666667,-78.65
CUNCHIBAMBA,TUNGURAHUA,-1.1333333333333333,-78.58333333333333
CUNUCU,PICHINCHA,-0.03333333333333333,-78.85
CUNUCYACU,TUNGURAHUA,-1.3333333333333333,-78.78333333333333
CUQUIVA,ESMERALDAS,0.7666666666666667,-79.55
CURACACA,ZAMORA-CHINCHIPE,-3.7694444444444444,-78.8938888888889
CURARAY,PASTAZA,-1.3666666666666667,-76.95
CURI TARQUI,AZUAY,-2.8666666666666667,-78.91666666666667
CURIACHI,LOJA,-4.05,-80.11666666666666
CURICHANGA,LOJA,-4.333333333333333,-79.85
CURILOMA,AZUAY,-3.1333333333333333,-79.2
CURIN,AZUAY,-3.066666666666667,-78.78333333333333
CURIQUINGUE,GUAYAS,-1.7666666666666666,-79.75
CURITROJE,LOJA,-4.083333333333333,-79.21666666666667
CURTINCAPA,EL ORO,-3.7333333333333334,-79.55
CURUSAPAL,CAñAR,-2.8166666666666664,-78.88333333333334
CUSCUDOMA,AZUAY,-3.5,-79.16666666666667
CUSHCA,TUNGURAHUA,-1.1833333333333333,-78.55
CUSHCA CHICO,TUNGURAHUA,-1.1833333333333333,-78.53333333333333
CUSHCAPA,LOJA,-3.45,-79.45
CUSHMAS,SUCUMBIOS,-0.11666666666666667,-76.66666666666667
CUSHO,AZUAY,-3.3333333333333335,-79.25
CUSHUIMI,MORONA-SANTIAGO,-2.5208333333333335,-77.72944444444444
CUSIGUANGO,COTOPAXI,-0.8,-78.58333333333333
CUSUA,TUNGURAHUA,-1.3833333333333333,-78.45
CUSUBAMBA,COTOPAXI,-1.0666666666666667,-78.7
CUSUIMI,MORONA-SANTIAGO,-2.7225,-77.67527777777778
CUSUMASA,MORONA-SANTIAGO,-3.0530555555555554,-77.95305555555557
CUTCHIL,AZUAY,-3.066666666666667,-78.8
CUTILOMA,AZUAY,-2.966666666666667,-78.86666666666666
CUTUGLAGUA,PICHINCHA,-0.36666666666666664,-78.55
CUTUNTZA,ZAMORA-CHINCHIPE,-4.031944444444444,-78.87277777777777
CUYABENO,SUCUMBIOS,-0.26666666666666666,-75.88333333333334
CUYPAMBA,AZUAY,-2.7666666666666666,-78.66666666666667
CUYUJA,NAPO,-0.4,-78.0
CUZCO,LOJA,-4.083333333333333,-80.5
DACTE,AZUAY,-3.066666666666667,-78.76666666666667
DALIGSHI,EL ORO,-3.3833333333333333,-79.53333333333333
DANDAN,AZUAY,-3.3,-79.35
DANIEL CORDOVA TORAL,AZUAY,-2.85,-78.75
DASHINO,SUCUMBIOS,-0.03333333333333333,-77.33333333333333
DATA DE POSORJA,GUAYAS,-2.716666666666667,-80.28333333333333
DATA DE VILLAMIL,GUAYAS,-2.716666666666667,-80.33333333333333
DAULAR,GUAYAS,-2.3166666666666664,-80.1
DAULE,GUAYAS,-1.8666666666666667,-79.93333333333334
DAULE,ESMERALDAS,0.4,-80.0
DAVALOS,ORELLANA,-0.8833333333333333,-75.4
DEAN ALTO,PICHINCHA,-0.31666666666666665,-78.48333333333333
DEAN BAJO,PICHINCHA,-0.3,-78.48333333333333
DEL SALITRE,PICHINCHA,-0.6166666666666667,-78.36666666666666
DELEG,CAñAR,-2.7666666666666666,-78.9
DELEGSOL,AZUAY,-3.0,-78.75
DELETRE,CAñAR,-2.55,-78.63333333333334
DELFINA,GUAYAS,-1.9833333333333334,-79.88333333333334
DELIA,GUAYAS,-2.2333333333333334,-79.8
DELICIA,GUAYAS,-1.9166666666666665,-79.78333333333333
DELICIA,GUAYAS,-1.7833333333333332,-79.85
DELICIA,GUAYAS,-1.7666666666666666,-79.81666666666666
DELICIAS,LOS RíOS,-1.6833333333333333,-79.76666666666667
DELTA,ORELLANA,-0.5833333333333334,-75.85
DEMECIA,GUAYAS,-1.3333333333333333,-79.86666666666666
DERNA,ORELLANA,-0.45,-76.73333333333333
DESCANSO,GUAYAS,-1.8666666666666667,-79.78333333333333
DESCANSO,ORELLANA,-0.43333333333333335,-76.78333333333333
DESCANSO DE SUCRE,AZUAY,-3.1,-79.06666666666666
DESEO,GUAYAS,-1.7666666666666666,-79.81666666666666
DESTACAMENTO TUNDAYME,ZAMORA-CHINCHIPE,-3.574444444444444,-78.47694444444444
DIAZ,GUAYAS,-2.216666666666667,-80.3
DIAZ DE PINEDA,NAPO,-0.2833333333333333,-77.71666666666667
DIEZ DE AGOSTO,MANABí,-0.15,-80.08333333333333
DIEZ DE AGOSTO,PASTAZA,-1.45,-77.9
DIEZ DE AGOSTO,MANABí,-1.2666666666666666,-80.38333333333334
DIOS PENA,SUCUMBIOS,0.24583333333333335,-76.81833333333333
DIRCAY,AZUAY,-3.3,-79.03333333333333
DIZHA,AZUAY,-2.9833333333333334,-79.9
DOBLONES,MANABí,-0.5833333333333334,-79.66666666666667
DOCE DE DICIEMBRE,LOJA,-4.066666666666666,-80.08333333333333
DOCTOR MIGUEL EGAS,IMBABURA,0.25,-78.23333333333333
DOMAGEO,EL ORO,-3.35,-79.53333333333333
DOMINGUILLO,LOJA,-4.166666666666667,-80.01666666666667
DON JUAN,MANABí,-0.15,-80.23333333333333
DON JULO,AZUAY,-2.7333333333333334,-78.65
DON LUCAS,GUAYAS,-2.25,-80.3
DON PANCHO,GUAYAS,-1.7833333333333332,-80.75
DON TOMAS,PASTAZA,-2.033333333333333,-77.05
DOS BOCAS,EL ORO,-3.55,-80.23333333333333
DOS BOCAS,EL ORO,-3.45,-80.03333333333333
DOS BOCAS,GUAYAS,-2.3,-80.5
DOS CRUCES,MANABí,-1.1583333333333332,-80.85
DOS CUEVAS,AZUAY,-2.8,-79.21666666666667
DOS HERMANAS,GUAYAS,-1.7666666666666666,-79.9
DOS MANGAS,GUAYAS,-1.825,-80.69166666666668
DOS RIOS,GUAYAS,-1.75,-80.65
DUBLIAY,CAñAR,-2.8,-78.91666666666667
DUCOGUAYCO,AZUAY,-3.15,-79.21666666666667
DUETA,AZUAY,-3.283333333333333,-79.5
DUGDUG,AZUAY,-2.75,-78.7
DUNILLIN,AZUAY,-3.3833333333333333,-79.15
DURAN,GUAYAS,-2.2,-79.83333333333333
DURAZNO,AZUAY,-3.033333333333333,-79.13333333333334
DURENO,SUCUMBIOS,0.044444444444444446,-76.69722222222222
ECHEANDIA,BOLíVAR,-1.4333333333333333,-79.26666666666667
EDUARDO,GUAYAS,-2.1666666666666665,-79.7
EJIDO NORTE,CARCHI,0.8333333333333334,-77.66666666666667
EL ACHIOTE,LOS RíOS,-0.7666666666666667,-79.4
EL ACHIOTE,ESMERALDAS,0.9666666666666667,-79.45555555555556
EL AGUACATE,MANABí,-1.45,-80.33333333333333
EL AGUAN,AZUAY,-2.9,-78.73333333333333
EL ALCOTE,AZUAY,-2.95,-78.86666666666666
EL ALCOTE,AZUAY,-2.9333333333333336,-78.86666666666666
EL ALTAR,CHIMBORAZO,-1.5166666666666666,-78.5
EL ALTAR,AZUAY,-2.9333333333333336,-78.9
EL ALTO,ESMERALDAS,1.05,-79.42500000000001
EL ANEGADO,MANABí,-1.4666666666666668,-80.53333333333333
EL ANGEL,CARCHI,0.6166666666666667,-77.93333333333334
EL APRETADERO,LOJA,-4.05,-79.86666666666666
EL ARENAL,AZUAY,-2.8666666666666667,-78.83333333333333
EL ARENAL,MORONA-SANTIAGO,-3.3963888888888887,-78.47972222222222
EL ARENAL,LOS RíOS,-1.8333333333333335,-79.7
EL ARENAL,BOLíVAR,-1.4666666666666668,-78.88333333333334
EL ARROYO,MANABí,-0.9833333333333333,-80.66666666666667
EL BAJO,GUAYAS,-1.4666666666666668,-79.86666666666666
EL BALDACO,GUAYAS,-1.9166666666666665,-79.93333333333334
EL BARRANCO,CAñAR,-2.55,-79.31666666666666
EL BARRIAL,LOJA,-3.9833333333333334,-79.6
EL BARRO,MANABí,-0.8833333333333333,-80.06666666666666
EL BATAN,GUAYAS,-1.1666666666666667,-79.91666666666667
EL BONETE,CAñAR,-2.533333333333333,-79.35
EL BOSQUE,EL ORO,-3.65,-79.63333333333334
EL BRUJO,ESMERALDAS,1.4508333333333332,-78.87722222222222
EL BUNQUE,EL ORO,-3.75,-80.03333333333333
EL BURRO,AZUAY,-3.216666666666667,-79.13333333333334
EL CABO,AZUAY,-2.85,-78.78333333333333
EL CACAO,MANABí,-1.35,-80.08333333333333
EL CAJAMPE,GUAYAS,-2.8,-79.75
EL CAJON,PICHINCHA,-0.05,-78.26666666666667
EL CAJON,LOJA,-4.183333333333334,-80.0
EL CALLEJON,MANABí,-1.2833333333333332,-80.1
EL CALVARIO,EL ORO,-3.6833333333333336,-79.63333333333334
EL CAMBIO,EL ORO,-3.3,-79.9
EL CAMINO,ESMERALDAS,0.9666666666666667,-79.50833333333334
EL CANAVERAL,MANABí,0.06666666666666667,-79.8
EL CAPRICHO,PASTAZA,-1.2833333333333332,-77.46666666666667
EL CARMELO,GUAYAS,-2.95,-79.9
EL CARMELO,CARCHI,0.6666666666666666,-77.63333333333334
EL CARMELO,ZAMORA-CHINCHIPE,-3.8191666666666664,-78.85638888888889
EL CARMEN,AZUAY,-2.9166666666666665,-78.86666666666666
EL CARMEN,LOJA,-4.216666666666667,-79.23333333333333
EL CARMEN,PICHINCHA,-0.2833333333333333,-78.78333333333333
EL CARMEN,MANABí,-0.26666666666666666,-79.43333333333334
EL CARMEN,GUAYAS,-1.3166666666666667,-80.01666666666667
EL CARMEN,ESMERALDAS,0.9166666666666666,-79.41666666666667
EL CARMEN,AZUAY,-2.966666666666667,-78.96666666666667
EL CARMEN,GUAYAS,-1.65,-79.86666666666666
EL CARMEN,GUAYAS,-2.2,-79.61666666666666
EL CARMEN,GUAYAS,-2.75,-79.7
EL CARMEN,LOS RíOS,-1.4333333333333333,-79.61666666666666
EL CARMEN,PICHINCHA,-0.43333333333333335,-78.36666666666666
EL CARRIZAL,CARCHI,0.7833333333333333,-77.7
EL CAUCHAL,ESMERALDAS,1.4058333333333333,-78.88472222222222
EL CAUTIVO,GUAYAS,-2.2,-80.9
EL CEDRAL,PICHINCHA,-0.43333333333333335,-78.68333333333334
EL CEDRO,ZAMORA-CHINCHIPE,-3.6805555555555554,-78.54444444444444
EL CEDRO,LOJA,-3.95,-79.48333333333333
EL CENSO,TUNGURAHUA,-1.1,-78.46666666666667
EL CERCADO,MANABí,-0.9527777777777777,-80.75416666666666
EL CERRITO,MANABí,-0.9166666666666666,-80.51666666666667
EL CERRITO,GUAYAS,-1.55,-79.9
EL CERRO,MANABí,-1.0833333333333333,-80.56666666666666
EL CHACO,NAPO,-0.3333333333333333,-77.81666666666666
EL CHAMICO,ZAMORA-CHINCHIPE,-3.9469444444444446,-78.82083333333333
EL CHAUCHAL,ESMERALDAS,1.4252777777777779,-78.88111111111111
EL CHAUPI,TUNGURAHUA,-1.1,-78.51666666666667
EL CHICO,CARCHI,0.8166666666666667,-77.71666666666667
EL CHORRO,ZAMORA-CHINCHIPE,-4.9,-79.1
EL CHORRO,ESMERALDAS,1.0188888888888887,-78.98833333333333
EL CIENEGO,LOJA,-4.016666666666667,-80.03333333333333
EL CISNE,ZAMORA-CHINCHIPE,-3.642777777777778,-78.90472222222223
EL CISNE,LOJA,-3.8666666666666667,-79.41666666666667
EL COCO,LOJA,-4.4,-79.88333333333334
EL CONCHERO,GUAYAS,-3.0,-79.86666666666666
EL CONDOR,TUNGURAHUA,-1.1666666666666667,-78.5
EL CONDOR,LOS RíOS,-1.3833333333333333,-79.83333333333333
EL CONEJO,SUCUMBIOS,0.23777777777777778,-76.90666666666667
EL CONGO,GUAYAS,-2.7666666666666666,-79.75
EL CONGO,LOJA,-4.016666666666667,-79.93333333333334
EL COPOSO,LOJA,-4.05,-79.91666666666667
EL CORAZON,COTOPAXI,-1.1333333333333333,-79.06666666666666
EL COROSO,GUAYAS,-2.033333333333333,-80.48333333333333
EL CRUCE,GUAYAS,-1.9,-79.85
EL CRUCE,EL ORO,-3.3833333333333333,-80.31666666666666
EL CUCHO,EL ORO,-3.5833333333333335,-79.85
EL DELEITE,GUAYAS,-2.0166666666666666,-79.75
EL DELEITE,GUAYAS,-2.066666666666667,-79.65
EL DERRUMBO,AZUAY,-2.783333333333333,-78.96666666666667
EL DESCANSO,TUNGURAHUA,-1.4166666666666667,-78.5
EL DESCANSO,AZUAY,-2.8333333333333335,-78.78333333333333
EL DESEO,GUAYAS,-2.216666666666667,-79.61666666666666
EL DESEO,GUAYAS,-1.7666666666666666,-80.01666666666667
EL DESHECHO,GUAYAS,-1.35,-80.03333333333333
EL DESTINO,ORELLANA,-0.85,-75.46666666666667
EL DESTINO,GUAYAS,-1.0333333333333334,-79.63333333333334
EL DORADO,SUCUMBIOS,0.10055555555555556,-76.89
EL DORADO,ZAMORA-CHINCHIPE,-3.9305555555555554,-78.69722222222222
EL DORADO DE CASCALES,SUCUMBIOS,0.08333333333333333,-77.21000000000001
EL DORADO DE CASCALES,SUCUMBIOS,0.06666666666666667,-77.21666666666667
EL EDEN,ORELLANA,-0.48333333333333334,-76.05
EL EMPALME,LOJA,-4.133333333333334,-79.83333333333333
EL ENO,SUCUMBIOS,-0.06666666666666667,-76.88333333333334
EL ESFUERZO,PICHINCHA,-0.4,-79.26666666666667
EL FAIGUE,LOJA,-4.166666666666667,-80.03333333333333
EL GOALTAL,CARCHI,0.8,-78.16666666666667
EL GOLFO,GUAYAS,-1.7666666666666666,-79.8
EL GUABITAL,GUAYAS,-2.7666666666666666,-79.7
EL GUABO,LOJA,-4.2,-80.2
EL GUABO,GUAYAS,-2.65,-79.71666666666667
EL GUABO,LOJA,-4.183333333333334,-80.38333333333334
EL GUACHAL,ESMERALDAS,1.1933333333333334,-78.92416666666666
EL GUANDO,LOJA,-4.1,-80.18333333333334
EL GUAYAN,AZUAY,-2.9166666666666665,-78.88333333333334
EL GUINEO,GUAYAS,-1.2166666666666668,-79.9
EL GUINEO,LOJA,-4.183333333333334,-80.01666666666667
EL HONDON,LOJA,-4.0,-80.05
EL HUASIMO,LOJA,-4.433333333333334,-80.31666666666666
EL HUATO,LOJA,-4.1,-79.65
EL HUATO,LOJA,-3.9833333333333334,-79.5
EL HUMEDO,LOJA,-4.033333333333333,-79.51666666666667
EL INGENIO,LOJA,-4.416666666666667,-79.35
EL INGENIO,ZAMORA-CHINCHIPE,-3.655,-78.96944444444445
EL INGENIO,EL ORO,-3.7,-79.93333333333334
EL JUNCO,MANABí,-0.8166666666666667,-80.31666666666666
EL KIOSCO,AZUAY,-3.3,-79.28333333333333
EL LIMBO,GUAYAS,-2.716666666666667,-80.13333333333334
EL LIMO,LOJA,-3.9833333333333334,-80.15
EL LIMON,LOJA,-4.383333333333334,-79.9
EL LIMON,EL ORO,-3.35,-79.7
EL LLANO,AZUAY,-2.9,-78.78333333333333
EL LORO,LOJA,-4.333333333333333,-80.43333333333334
EL LUCERO,LOJA,-4.4,-79.46666666666667
EL MANGLESITO,GUAYAS,-2.7333333333333334,-79.73333333333333
EL MANGO,LOJA,-4.383333333333334,-80.36666666666666
EL MATE,GUAYAS,-1.7833333333333332,-80.01666666666667
EL MATE,MANABí,-0.6666666666666666,-80.05
EL MATE,GUAYAS,-2.466666666666667,-80.26666666666667
EL MIRADOR,PICHINCHA,-0.5666666666666667,-79.16666666666667
EL MIRADOR,GUAYAS,-2.9833333333333334,-79.76666666666667
EL MONJE,LOJA,-4.1,-79.2
EL MONO,MANABí,-0.35,-79.7
EL MONTE,MANABí,-0.6666666666666666,-80.06666666666666
EL MORRO,GUAYAS,-2.6655555555555557,-80.37638888888888
EL MUERTO,EL ORO,-3.3,-79.86666666666666
EL MUERTO,LOJA,-4.183333333333334,-80.1
EL MUNDO,TUNGURAHUA,-1.2833333333333332,-78.48333333333333
EL NAQUE,LOJA,-4.2,-79.21666666666667
EL NARANJO,LOJA,-4.216666666666667,-80.08333333333333
EL NARANJO,LOJA,-4.016666666666667,-79.6
EL NARANJO,GUAYAS,-1.9166666666666665,-79.9
EL NATO,GUAYAS,-1.9833333333333334,-80.01666666666667
EL NEGRO,EL ORO,-3.6833333333333336,-79.93333333333334
EL OLIMPO,CAñAR,-2.3166666666666664,-79.03333333333333
EL OLIVO,IMBABURA,0.36666666666666664,-78.1
EL ORGANO,LOJA,-4.133333333333334,-80.16666666666667
EL PACHE,EL ORO,-3.716666666666667,-79.66666666666667
EL PALMAR,CAñAR,-2.533333333333333,-79.33333333333333
EL PALMAR,TUNGURAHUA,-1.3833333333333333,-78.28333333333333
EL PAN,AZUAY,-2.7666666666666666,-78.65
EL PANGUI,ZAMORA-CHINCHIPE,-3.625,-78.58694444444444
EL PARAISO,EL ORO,-3.15,-79.73333333333333
EL PARAISO,MANABí,-0.31666666666666665,-80.36666666666666
EL PARAISO,MANABí,-0.23333333333333334,-80.35
EL PATRIMONIO,GUAYAS,-1.8666666666666667,-79.86666666666666
EL PETRILLO,GUAYAS,-1.95,-80.0
EL PINDAL,ZAMORA-CHINCHIPE,-3.7577777777777777,-78.60249999999999
EL PINDO,EL ORO,-3.8,-80.1
EL PINDO,LOJA,-4.133333333333334,-80.2
EL PITAL,MANABí,-1.5722222222222222,-80.78333333333333
EL PITAYO,LOJA,-4.316666666666666,-80.25
EL PLACER,EL ORO,-3.6166666666666667,-79.81666666666666
EL PLACER,GUAYAS,-2.8166666666666664,-79.98333333333333
EL PLACER,LOS RíOS,-1.3833333333333333,-79.8
EL PLACER,ORELLANA,-0.9333333333333333,-75.21666666666667
EL PLATEADO,ZAMORA-CHINCHIPE,-3.661388888888889,-78.77805555555555
EL PLATEADO,LOJA,-3.9833333333333334,-79.25
EL PLAYON,GUAYAS,-2.95,-79.86666666666666
EL PLAYON DE SAN FRANCISCO,SUCUMBIOS,0.6333333333333333,-77.61666666666666
EL POLO,MANABí,-1.1666666666666667,-80.36666666666666
EL PORTON,AZUAY,-3.2666666666666666,-79.26666666666667
EL PORVENIR,SUCUMBIOS,0.15083333333333332,-76.96694444444445
EL PORVENIR,LOJA,-4.15,-79.21666666666667
EL PORVENIR,GUAYAS,-1.2333333333333334,-79.91666666666667
EL PORVENIR,MANABí,0.13333333333333333,-79.91666666666667
EL PORVENIR,PICHINCHA,0.1,-78.75
EL PORVENIR,ORELLANA,-0.5,-76.4
EL PORVENIR,ESMERALDAS,1.2047222222222222,-78.91444444444446
EL PORVENIR,PICHINCHA,-0.26666666666666666,-78.53333333333333
EL PORVENIR,PICHINCHA,-0.25,-79.13333333333334
EL PRADO,GUAYAS,-1.7166666666666668,-79.88333333333334
EL PRADO,PICHINCHA,-0.45,-78.35
EL PRESIDENTE,GUAYAS,-2.7,-80.06666666666666
EL PROGRESO,ZAMORA-CHINCHIPE,-3.9016666666666664,-78.85972222222222
EL PROGRESO,AZUAY,-3.3333333333333335,-79.2
EL PROGRESO,GALáPAGOS,-0.898611111111111,-89.54722222222222
EL PROGRESO,GUAYAS,-1.9833333333333334,-79.45
EL PROGRESO,ESMERALDAS,1.1575,-78.89222222222223
EL PUEBLITO,MANABí,-0.8166666666666667,-80.5
EL PUENTE,LOJA,-3.9333333333333336,-80.08333333333333
EL PUERTO,MANABí,0.21666666666666667,-79.91666666666667
EL PUN,CARCHI,0.6666666666666666,-77.61666666666666
EL RANCHO,PICHINCHA,-0.45,-78.38333333333334
EL REAL,GUAYAS,-2.3833333333333333,-80.73333333333333
EL RECREO,LOJA,-4.033333333333333,-79.2
EL RECREO,GUAYAS,-2.6,-79.61666666666666
EL RECREO,MORONA-SANTIAGO,-3.0083333333333333,-78.43305555555555
EL RECREO,GUAYAS,-2.1666666666666665,-79.81666666666666
EL RECREO,LOJA,-3.3333333333333335,-79.36666666666666
EL RECREO,MANABí,-0.48333333333333334,-80.45
EL RECREO,GUAYAS,-1.7666666666666666,-79.9
EL RECREO,GUAYAS,-2.1333333333333333,-79.8
EL RESBALON,MANABí,-0.9833333333333333,-80.41666666666667
EL RETIRO,ORELLANA,-0.4666666666666667,-76.3
EL RODEO,CAñAR,-2.466666666666667,-79.16666666666667
EL ROSAL,TUNGURAHUA,-1.3666666666666667,-78.63333333333334
EL ROSAL,CARCHI,0.8166666666666667,-77.7
EL ROSARIO,TUNGURAHUA,-1.3,-78.56666666666666
EL ROSARIO,GUAYAS,-2.0166666666666666,-79.81666666666666
EL ROSARIO,AZUAY,-3.2666666666666666,-79.26666666666667
EL ROSARIO,LOJA,-3.783333333333333,-79.6
EL ROSARIO,MANABí,-0.38333333333333336,-80.46666666666667
EL SALADO,ZAMORA-CHINCHIPE,-3.6441666666666666,-78.92361111111111
EL SALTO,ESMERALDAS,0.9888888888888888,-79.5
EL SALTO,LOJA,-4.25,-80.36666666666666
EL SALTO,GUAYAS,-1.2166666666666668,-79.9
EL SALTO,PICHINCHA,-0.43333333333333335,-78.41666666666667
EL SALTO,ESMERALDAS,1.05,-79.38333333333334
EL SALTO,CAñAR,-2.65,-78.93333333333334
EL SAUCE,LOJA,-4.183333333333334,-80.36666666666666
EL SAUCE,LOJA,-4.116666666666666,-80.43333333333334
EL SAUCE,LOJA,-4.416666666666667,-80.45
EL SAUCE,LOJA,-4.066666666666666,-79.86666666666666
EL SAUCE,LOS RíOS,-1.4333333333333333,-79.61666666666666
EL SAUCE,AZUAY,-3.2,-79.18333333333334
EL SAUCE,AZUAY,-3.216666666666667,-79.26666666666667
EL SAUCE,EL ORO,-3.5166666666666666,-80.05
EL SAUCO,LOJA,-4.283333333333333,-80.05
EL SESTEADERO,LOJA,-4.066666666666666,-79.88333333333334
EL SHUGSHO,LOJA,-4.166666666666667,-79.96666666666667
EL SIETE,GUAYAS,-2.1666666666666665,-79.65
EL SUCHE,GUAYAS,-1.4,-79.86666666666666
EL SUSPIRO,GUAYAS,-1.9,-80.65
EL TABLON,LOJA,-3.4833333333333334,-79.16666666666667
EL TABLON,EL ORO,-3.716666666666667,-79.58333333333333
EL TABLON,TUNGURAHUA,-1.1333333333333333,-78.61666666666666
EL TABOR,GUAYAS,-2.75,-79.9
EL TACO,LOS RíOS,-1.3833333333333333,-79.6
EL TAMBO,CAñAR,-2.5,-78.9
EL TAMBO,EL ORO,-3.7666666666666666,-80.03333333333333
EL TAMBO,LOJA,-4.0725,-79.30833333333334
EL TESORO,GUAYAS,-1.7666666666666666,-79.9
EL TESORO,GUAYAS,-1.9,-79.55
EL TIBURON,GUAYAS,-2.197222222222222,-79.98333333333333
EL TIGRE,LOS RíOS,-1.8666666666666667,-79.31666666666666
EL TINGO,PICHINCHA,-0.2833333333333333,-78.43333333333334
EL TINGO,CHIMBORAZO,-1.9666666666666668,-78.6
EL TOCTE,AZUAY,-2.8833333333333333,-78.86666666666666
EL TOLDO,LOJA,-4.366666666666666,-79.51666666666667
EL TOLDO,LOJA,-4.410555555555556,-79.55083333333333
EL TORMENTO,GUAYAS,-1.8666666666666667,-79.86666666666666
EL TORO,EL ORO,-3.783333333333333,-80.08333333333333
EL TRAPICHE,PICHINCHA,-0.2,-78.43333333333334
EL TRIUNFO,GUAYAS,-1.9333333333333333,-79.96666666666667
EL TRIUNFO,TUNGURAHUA,-1.3,-78.4
EL TRIUNFO,GUAYAS,-2.3166666666666664,-80.4
EL TRIUNFO,LOS RíOS,-1.5166666666666666,-79.7
EL VERDE,PICHINCHA,-0.03333333333333333,-78.03333333333333
EL VERDE,AZUAY,-3.05,-78.98333333333333
EL VIENTO,ESMERALDAS,1.3663888888888889,-78.83583333333333
EL ZAPOTE CORRALITO,GUAYAS,-2.716666666666667,-79.95
ELDELI,EL ORO,-3.4333333333333336,-80.01666666666667
ELENA,LOS RíOS,-1.8833333333333333,-79.65
ELOY ALFARO,ORELLANA,-0.85,-75.43333333333334
ELOY ALFARO,MANABí,-0.4,-80.08333333333333
ELSA LEONOR,GUAYAS,-1.9833333333333334,-79.8
ELVA,ORELLANA,-0.8333333333333334,-75.48333333333333
ELVIRA,LOS RíOS,-1.8666666666666667,-79.53333333333333
ELVIRA,LOS RíOS,-1.8333333333333335,-79.51666666666667
ELVIRA,GUAYAS,-2.0833333333333335,-79.7
ELVIRA,LOS RíOS,-1.4666666666666668,-79.45
ELVIRA,GUAYAS,-1.8,-80.0
EMBARCADERO,MORONA-SANTIAGO,-2.8447222222222224,-77.95333333333333
EMILIA,LOS RíOS,-1.5333333333333332,-79.41666666666667
EMILIO MARIA TERAN,TUNGURAHUA,-1.2166666666666668,-78.51666666666667
EMPERATRIZ,GUAYAS,-1.9833333333333334,-79.4
EMPERATRIZ,AZUAY,-3.1,-79.01666666666667
ENEN,CAñAR,-2.533333333333333,-79.23333333333333
ENGABAO,GUAYAS,-2.5833333333333335,-80.48333333333333
ENGULLIMA,GUAYAS,-2.35,-80.66666666666667
ENGUNGA,GUAYAS,-2.466666666666667,-80.55
ENRAMADA,AZUAY,-3.2666666666666666,-79.66666666666667
ENRIQUETA,GUAYAS,-1.45,-79.91666666666667
ENSENADA,GUAYAS,-2.3,-79.78333333333333
ENTRADA,GUAYAS,-1.7166666666666668,-80.8
ENTRE RIOS,GUAYAS,-2.3,-80.81666666666666
ENTZACUA,MORONA-SANTIAGO,-2.533333333333333,-77.7
ENVIDIA,GUAYAS,-1.8666666666666667,-79.81666666666666
ENVIDIA,GUAYAS,-1.8,-79.86666666666666
ENVIDIA,GUAYAS,-1.7666666666666666,-79.76666666666667
ENVIDIA,GUAYAS,-1.75,-79.8
ENVIDIA,GUAYAS,-2.0166666666666666,-79.96666666666667
ENVIDIABLE,GUAYAS,-1.9,-79.78333333333333
ERMELINDA,GUAYAS,-1.9166666666666665,-79.71666666666667
ERMINIA,GUAYAS,-1.9,-79.76666666666667
ESCALERA,PICHINCHA,0.0,-78.93333333333334
ESCALERAS,AZUAY,-3.033333333333333,-79.06666666666666
ESCALERAS,AZUAY,-3.5166666666666666,-79.18333333333334
ESCALON,MANABí,-0.2833333333333333,-80.01666666666667
ESMERALDAS,GUAYAS,-1.8666666666666667,-79.8
ESMERALDAS,ESMERALDAS,0.9591666666666666,-79.6538888888889
ESMERALDAS,AZUAY,-3.3333333333333335,-79.4
ESMERALDAS LIBRE,SUCUMBIOS,0.0775,-76.88361111111112
ESPANA,GUAYAS,-1.8666666666666667,-79.76666666666667
ESPERANZA,GUAYAS,-1.5833333333333335,-79.98333333333333
ESPERANZA,GUAYAS,-1.8666666666666667,-79.76666666666667
ESPERANZA,GUAYAS,-2.2333333333333334,-80.28333333333333
ESPERANZA,LOS RíOS,-1.95,-79.36666666666666
ESPERANZA,GUAYAS,-1.35,-79.9
ESPERANZA,LOS RíOS,-1.5333333333333332,-79.78333333333333
ESPINAL,GUAYAS,-2.6666666666666665,-80.05
ESTACADA,GUAYAS,-1.85,-80.28333333333333
ESTACION DE CUMBE,AZUAY,-3.05,-79.05
ESTANCIA,MANABí,-1.1666666666666667,-80.4
ESTANCIA VIEJA,GUAYAS,-2.066666666666667,-79.88333333333334
ESTANCILLA,MANABí,-0.8166666666666667,-80.2
ESTERO COBINA,GUAYAS,-2.261111111111111,-79.86388888888888
ESTERO DE BOCA,GUAYAS,-2.783333333333333,-80.23333333333333
ESTERO LAGARTO,GUAYAS,-1.7333333333333334,-79.91666666666667
ESTRELLA,GUAYAS,-1.8333333333333335,-79.8
ESTRELLA DEL ORIENTE,SUCUMBIOS,0.07666666666666666,-76.87888888888888
ESTRELLA YACU,ORELLANA,-0.43333333333333335,-77.11666666666666
ETELVINA,GUAYAS,-1.5833333333333335,-80.01666666666667
ETSA,MORONA-SANTIAGO,-3.0638888888888887,-77.94472222222223
EUFEMIA,GUAYAS,-2.2333333333333334,-80.06666666666666
EUGENIA,GUAYAS,-1.8,-79.78333333333333
EUGENIA,GUAYAS,-2.1,-79.71666666666667
EUGENIA,GUAYAS,-2.183333333333333,-79.6
EUGENIO ESPEJO,IMBABURA,0.21666666666666667,-78.25
FABIOLA,GUAYAS,-1.5833333333333335,-79.95
FACUNDO VELA,BOLíVAR,-1.2166666666666668,-79.08333333333333
FAICAL,EL ORO,-3.7,-80.2
FASANA,AZUAY,-3.1666666666666665,-79.23333333333333
FATIMA,MORONA-SANTIAGO,-3.479444444444445,-78.4925
FATIMA,PASTAZA,-1.4333333333333333,-77.98333333333333
FEBRES CORDERO,GUAYAS,-1.9333333333333333,-80.61666666666666
FEBRES CORDERO,LOS RíOS,-1.95,-79.3
FEIJO,EL ORO,-3.6333333333333333,-79.91666666666667
FELICIDAD,LOS RíOS,-1.6166666666666667,-79.86666666666666
FELTON,PASTAZA,-1.9833333333333334,-77.5
FENIX,ORELLANA,-0.9,-75.41666666666667
FERNANDEZ SALVADOR,CARCHI,0.6,-77.76666666666667
FICOA,TUNGURAHUA,-1.2333333333333334,-78.63333333333334
FILAN BANCO,MANABí,-2.225,-80.9
FILI,AZUAY,-3.066666666666667,-79.03333333333333
FIRME,GUAYAS,-1.75,-79.8
FLANDES,TUNGURAHUA,-1.3333333333333333,-78.46666666666667
FLAVIO ALFARO,MANABí,-0.4,-79.91666666666667
FLOR AMALIA,GUAYAS,-1.9,-79.71666666666667
FLOR DE BOSQUE,MORONA-SANTIAGO,-3.03,-78.4625
FLOR DE MARIA,GUAYAS,-1.8166666666666667,-80.0
FLOR DE MARIA,GUAYAS,-1.8833333333333333,-79.78333333333333
FLOR DE ORO,EL ORO,-3.2666666666666666,-79.95
FLORA,GUAYAS,-1.8666666666666667,-79.81666666666666
FLORA,GUAYAS,-1.8666666666666667,-79.75
FLORENCIA,GUAYAS,-2.2,-79.85
FLORENCIA,ORELLANA,-0.8833333333333333,-75.45
FLORES,LOS RíOS,-1.55,-79.71666666666667
FLORES,CHIMBORAZO,-1.8,-78.63333333333334
FLORIDA,GUAYAS,-1.7333333333333334,-79.81666666666666
FOGONES,LOJA,-3.8666666666666667,-80.01666666666667
FORTUNA,GUAYAS,-1.4666666666666668,-80.08333333333333
FORTUNA,GUAYAS,-1.5333333333333332,-79.9
FORTUNA,GUAYAS,-1.7333333333333334,-79.81666666666666
FORTUNA,GUAYAS,-1.8333333333333335,-79.81666666666666
FORTUNA,LOS RíOS,-1.8833333333333333,-79.61666666666666
FRANCES URCO,AZUAY,-3.05,-79.08333333333333
FRANCISCO ARO,GUAYAS,-1.8,-79.88333333333334
FRESCOGUAYCO,AZUAY,-3.1,-79.08333333333333
FRIEDO,GALáPAGOS,-1.2666666666666666,-90.38333333333334
G. MUNOZ,GUAYAS,-2.216666666666667,-80.31666666666666
GACELA,GUAYAS,-1.35,-79.91666666666667
GALA,GUAYAS,-2.966666666666667,-79.76666666666667
GALA DE ARRIBA,GUAYAS,-3.0166666666666666,-79.71666666666667
GALAPAGOS,IMBABURA,0.35,-78.73333333333333
GALERA,ESMERALDAS,0.8166666666666667,-80.05
GALLARDO,GUAYAS,-2.225,-79.86944444444444
GALLATA,AZUAY,-3.0,-79.56666666666666
GALLINAZO,LOS RíOS,-1.7,-79.6
GALLOCANTANA,EL ORO,-3.3666666666666667,-79.53333333333333
GALOPE,ESMERALDAS,1.0,-79.5
GALTE,CHIMBORAZO,-1.9833333333333334,-78.76666666666667
GANACAY,EL ORO,-3.3666666666666667,-79.51666666666667
GANADEL,AZUAY,-3.1333333333333333,-79.03333333333333
GANALCAY,AZUAY,-2.8666666666666667,-78.8
GANAN,LOJA,-3.5833333333333335,-79.3
GANIL,LOJA,-3.6,-79.33333333333333
GANILLAC,AZUAY,-3.216666666666667,-78.96666666666667
GANZHUN,AZUAY,-2.95,-78.8
GAPAL,AZUAY,-2.966666666666667,-78.96666666666667
GARACHAMBA,LOJA,-3.95,-79.66666666666667
GARAUSHI,AZUAY,-3.0166666666666666,-78.9
GARCELAN,ZAMORA-CHINCHIPE,-3.636388888888889,-78.95472222222223
GARCIA MORENO,CARCHI,0.5666666666666667,-77.93333333333334
GARCIA MORENO,IMBABURA,0.21666666666666667,-78.63333333333334
GARCIA MORENO,TUNGURAHUA,-1.3166666666666667,-78.53333333333333
GARZA,GUAYAS,-1.8166666666666667,-79.9
GARZA HUACHANA,LOJA,-4.3,-80.23333333333333
GARZA-COCHA,SUCUMBIOS,-0.4666666666666667,-75.35
GARZAGUACHANA,LOJA,-4.333333333333333,-80.35
GATAZO,GUAYAS,-1.8833333333333333,-79.73333333333333
GAZAR,GUAYAS,-2.4166666666666665,-79.78333333333333
GENERAL FARFAN,SUCUMBIOS,0.2475,-76.87444444444444
GENERAL LEONIDAS PLAZA GUTIERREZ,MORONA-SANTIAGO,-2.966666666666667,-78.41666666666667
GENERAL MORALES,CAñAR,-2.4,-79.03333333333333
GENERAL PEDRO J. MONTERO,GUAYAS,-2.2666666666666666,-79.63333333333334
GENERAL PROANO,MORONA-SANTIAGO,-2.283333333333333,-78.13333333333334
GENERAL VERNAZA,GUAYAS,-1.7666666666666666,-79.78333333333333
GENOVA,PICHINCHA,-0.45,-78.66666666666667
GERCELAN,LOJA,-3.466666666666667,-79.4
GERMANIA,GUAYAS,-1.55,-79.9
GERMANIA,PICHINCHA,-0.7333333333333333,-79.15
GIGANTONES,AZUAY,-3.216666666666667,-79.25
GIMA,AZUAY,-3.2,-78.95
GIRON,AZUAY,-3.1666666666666665,-79.13333333333334
GLORIA,ESMERALDAS,0.9166666666666666,-79.4
GLORIA,GUAYAS,-1.8833333333333333,-79.8
GLORIA MARIA,PICHINCHA,-0.26666666666666666,-79.08333333333333
GOMEZ RENDON,GUAYAS,-2.4,-80.36666666666666
GONGORA,GUAYAS,-2.35,-80.68333333333334
GONSAPAMBA,LOJA,-4.6,-79.48333333333333
GONZALEZ SUAREZ,IMBABURA,0.18333333333333332,-78.21666666666667
GONZALEZ SUAREZ,CARCHI,0.7833333333333333,-77.85
GONZALO PIZARRO,ORELLANA,-0.55,-77.43333333333334
GONZALO PIZARRO,SUCUMBIOS,0.01611111111111111,-77.37805555555555
GONZANAMA,LOJA,-4.25,-79.45
GONZOL,CHIMBORAZO,-2.25,-78.81666666666666
GORDELEG,AZUAY,-2.95,-78.88333333333334
GRACIELA,GUAYAS,-1.8666666666666667,-80.01666666666667
GRACIOSA,GUAYAS,-1.85,-79.75
GRAMADAL,LOJA,-4.0,-80.35
GRAMADALES,LOJA,-4.216666666666667,-80.23333333333333
GRAMATAL,GUAYAS,-2.533333333333333,-79.58333333333333
GRANADILLA,CHIMBORAZO,-1.75,-78.76666666666667
GRANADILLAS,MORONA-SANTIAGO,-3.1333333333333333,-78.73333333333333
GRANADILLAS,AZUAY,-3.2,-79.21666666666667
GRANJA,GUAYAS,-2.183333333333333,-79.95
GUABAL,ESMERALDAS,0.9666666666666667,-79.5625
GUABIDILLA,AZUAY,-2.8166666666666664,-79.23333333333333
GUABIDUCA,ZAMORA-CHINCHIPE,-3.6011111111111114,-78.93111111111112
GUABILLO,EL ORO,-3.6,-80.18333333333334
GUABINA,ESMERALDAS,1.0952777777777778,-78.77555555555556
GUABISAY,AZUAY,-2.9166666666666665,-78.9
GUABISHUN,CAñAR,-2.8,-78.91666666666667
GUABITOS,GUAYAS,-1.5666666666666667,-80.08333333333333
GUABLIT,AZUAY,-2.7666666666666666,-78.68333333333334
GUABO,GUAYAS,-1.0166666666666666,-79.61666666666666
GUABO,EL ORO,-3.25,-79.85
GUABO PLAYA,EL ORO,-3.3166666666666664,-79.81666666666666
GUACHALA,ESMERALDAS,0.4,-79.4
GUACHALAN,AZUAY,-2.8833333333333333,-78.75
GUACHANAMA,LOJA,-4.033333333333333,-79.88333333333334
GUACHAPALA,AZUAY,-2.7666666666666666,-78.7
GUACHAPELI,GUAYAS,-1.9333333333333333,-79.73333333333333
GUACHAPELI,LOS RíOS,-1.65,-79.7
GUACHAPELI,GUAYAS,-1.7833333333333332,-79.8
GUACHUM,AZUAY,-2.8333333333333335,-78.85
GUACUALSAN,GUAYAS,-2.3166666666666664,-80.68333333333334
GUADALUPE,TUNGURAHUA,-1.35,-78.5
GUADALUPE,PICHINCHA,-0.26666666666666666,-79.08333333333333
GUADALUPE,ZAMORA-CHINCHIPE,-3.843888888888889,-78.8863888888889
GUADALUPE,LOS RíOS,-1.6166666666666667,-79.86666666666666
GUADUAL,ESMERALDAS,0.8,-79.16666666666667
GUADUAL,MANABí,0.3333333333333333,-80.0
GUADUAL,IMBABURA,0.7333333333333333,-78.23333333333333
GUADUAL GRANDE,COTOPAXI,-0.65,-79.08333333333333
GUAGRA PLAZA,CAñAR,-2.7666666666666666,-78.91666666666667
GUAGRIN,AZUAY,-3.1166666666666667,-79.23333333333333
GUAGUA CORRAL,AZUAY,-3.1,-79.56666666666666
GUAGUA TARQUI,AZUAY,-2.9833333333333334,-79.06666666666666
GUAGUAIME,ZAMORA-CHINCHIPE,-3.6494444444444443,-78.87666666666667
GUAGUALPAMBA,AZUAY,-2.9833333333333334,-78.75
GUAGUARSHUMA,AZUAY,-2.8833333333333333,-78.9
GUAGUAYME ALTO,ZAMORA-CHINCHIPE,-3.904166666666667,-78.88555555555556
GUAGUAYME BAJO,ZAMORA-CHINCHIPE,-3.9097222222222223,-78.88527777777779
GUAILLABAMBA,PICHINCHA,-0.03333333333333333,-78.35
GUAILLABAMBA,ESMERALDAS,0.45,-79.4
GUAILLABAMBA,PICHINCHA,-0.06666666666666667,-78.35
GUAJABAMBA,GUAYAS,-1.6833333333333333,-80.01666666666667
GUAJALA,GUAYAS,-2.1,-79.8
GUAJIBAMBA,AZUAY,-2.8666666666666667,-78.93333333333334
GUALACEO,AZUAY,-2.9,-78.78333333333333
GUALALAICO,AZUAY,-2.9833333333333334,-78.88333333333334
GUALAQUIZA,MORONA-SANTIAGO,-3.4,-78.55
GUALATAN,TUNGURAHUA,-1.2666666666666666,-78.5
GUALAYA,COTOPAXI,-0.75,-78.88333333333334
GUALCHAN,CARCHI,0.48333333333333334,-77.88333333333334
GUALE,MANABí,-1.6166666666666667,-80.23333333333333
GUALEA,PICHINCHA,0.11666666666666667,-78.73333333333333
GUALEL,LOJA,-3.783333333333333,-79.38333333333334
GUALIMAN,IMBABURA,0.38333333333333336,-78.8
GUALLACAY,AZUAY,-2.7666666666666666,-78.68333333333334
GUALLAGRO,AZUAY,-2.7666666666666666,-78.71666666666667
GUALLETURO,CAñAR,-2.466666666666667,-79.11666666666666
GUALLUPE,IMBABURA,0.7833333333333333,-78.3
GUAMA,CARCHI,0.7666666666666667,-77.76666666666667
GUAMBENA,COTOPAXI,-1.1166666666666667,-78.93333333333334
GUAMBI,MORONA-SANTIAGO,-2.6691666666666665,-77.08777777777777
GUAMBUSARI,LOJA,-3.55,-79.4
GUAMOTE,CHIMBORAZO,-1.9333333333333333,-78.71666666666667
GUANABANA,LOS RíOS,-1.4666666666666668,-79.83333333333333
GUANANDO,CHIMBORAZO,-1.5333333333333332,-78.53333333333333
GUANAZAN,EL ORO,-3.45,-79.5
GUANDO,ZAMORA-CHINCHIPE,-3.569444444444444,-78.92083333333333
GUANDO,AZUAY,-2.8166666666666664,-78.81666666666666
GUANDO,AZUAY,-3.283333333333333,-79.01666666666667
GUANGAJE,COTOPAXI,-0.8666666666666667,-78.83333333333333
GUANGALA,GUAYAS,-2.0,-80.6
GUANGALA,GUAYAS,-2.4166666666666665,-80.61666666666666
GUANGALO,TUNGURAHUA,-1.3166666666666667,-78.56666666666666
GUANGANA,TUNGURAHUA,-1.3,-78.65
GUANGANCHO,AZUAY,-2.8833333333333333,-78.81666666666666
GUANGOPOLO,PICHINCHA,-0.25,-78.45
GUANGUARCUCHO,AZUAY,-2.85,-78.88333333333334
GUANO,CHIMBORAZO,-1.5833333333333335,-78.63333333333334
GUANTUGSUMO,TUNGURAHUA,-1.3333333333333333,-78.56666666666666
GUANTUHALO,TUNGURAHUA,-1.15,-78.5
GUANUJO,BOLíVAR,-1.5666666666666667,-79.01666666666667
GUAPA,TUNGURAHUA,-1.1666666666666667,-78.45
GUAPAGEO,AZUAY,-3.1333333333333333,-79.06666666666666
GUAPAN,CAñAR,-2.716666666666667,-78.81666666666666
GUAPARA,GUAYAS,-1.9666666666666668,-79.73333333333333
GUAPULO,PICHINCHA,-0.2,-78.48333333333333
GUARAHUIN,CAñAR,-2.533333333333333,-78.98333333333333
GUARAINAC,AZUAY,-2.6666666666666665,-78.61666666666666
GUARANDA,BOLíVAR,-1.6,-79.0
GUARANGLIAS,AZUAY,-2.75,-78.73333333333333
GUARANGO,AZUAY,-2.9833333333333334,-78.88333333333334
GUARANGOS,CAñAR,-2.8,-78.85
GUARANGUILLO,ZAMORA-CHINCHIPE,-4.95,-79.18333333333334
GUARARAS,LOJA,-4.016666666666667,-80.1
GUARDERAS,GUAYAS,-1.4166666666666667,-79.91666666666667
GUARE,LOS RíOS,-1.6833333333333333,-79.7
GUARE,GUAYAS,-2.0,-79.76666666666667
GUARUMAL,GUAYAS,-1.7,-79.86666666666666
GUARUMAL,LOS RíOS,-1.8833333333333333,-79.65
GUARUMAL,AZUAY,-3.2666666666666666,-79.61666666666666
GUARUMAL,AZUAY,-2.6166666666666667,-78.53333333333333
GUARUMALES,CAñAR,-2.3833333333333333,-79.16666666666667
GUARUMO,ESMERALDAS,1.2105555555555556,-78.73805555555556
GUAS GUAS,AZUAY,-3.1166666666666667,-79.56666666666666
GUASAGANDA,COTOPAXI,-0.8,-79.16666666666667
GUASHUMA,AZUAY,-2.85,-78.9
GUASIMO,LOJA,-4.366666666666666,-79.78333333333333
GUASINGA,TUNGURAHUA,-1.3,-78.6
GUASMAL,GUAYAS,-1.5833333333333335,-80.11666666666666
GUASMO,GUAYAS,-2.2333333333333334,-79.9
GUASUNTOS,CHIMBORAZO,-2.216666666666667,-78.81666666666666
GUASURCO,EL ORO,-3.3333333333333335,-79.66666666666667
GUATAGSHUN,AZUAY,-2.8833333333333333,-78.75
GUATANA,AZUAY,-2.9,-78.98333333333333
GUATARA,LOJA,-4.366666666666666,-80.01666666666667
GUAVISAY,AZUAY,-3.15,-78.93333333333334
GUAYABAL,PICHINCHA,-0.21666666666666667,-79.25
GUAYABAL,LOJA,-4.466666666666667,-79.6
GUAYABO,EL ORO,-3.5833333333333335,-79.9
GUAYABO,MANABí,-1.0166666666666666,-80.48333333333333
GUAYABO,AZUAY,-3.3333333333333335,-79.56666666666666
GUAYACAN,LOJA,-4.25,-80.25
GUAYAN,PICHINCHA,-0.21666666666666667,-78.65
GUAYAN,AZUAY,-2.783333333333333,-78.88333333333334
GUAYAQUIL,GUAYAS,-2.1666666666666665,-79.9
GUAYAS,GUAYAS,-0.9666666666666667,-79.55
GUAYLLABAMBA,PICHINCHA,-0.05,-78.33333333333333
GUAYQUICHUMA,LOJA,-3.8166666666666664,-79.55
GUAYRAPUNGO,CAñAR,-2.6,-78.8
GUAYTACAMA,COTOPAXI,-0.8166666666666667,-78.63333333333334
GUAYUSA,PASTAZA,-1.85,-76.31666666666666
GUAYZIMI,ZAMORA-CHINCHIPE,-4.046666666666667,-78.68333333333334
GUEL,AZUAY,-3.0166666666666666,-78.78333333333333
GUELEMON,LOJA,-3.6333333333333333,-79.25
GUEMBI,ESMERALDAS,0.95,-78.78333333333333
GUILBUD,CHIMBORAZO,-1.7333333333333334,-78.58333333333333
GUILLERMO,GUAYAS,-1.3333333333333333,-80.05
GUILLERMO ORTEGA,AZUAY,-2.8333333333333335,-78.81666666666666
GUINANDEL,AZUAY,-2.966666666666667,-78.81666666666666
GUINEO GRANDE,LOJA,-4.166666666666667,-80.15
GUINGOPANA,COTOPAXI,-0.75,-78.76666666666667
GUINTUR,AZUAY,-2.783333333333333,-78.66666666666667
GUINZHUN,AZUAY,-2.9166666666666665,-78.75
GUISHAPA,AZUAY,-2.9833333333333334,-78.95
GUISHIL,AZUAY,-2.9166666666666665,-79.06666666666666
GUISME,ZAMORA-CHINCHIPE,-3.5508333333333333,-78.56861111111111
GUIZHAGUINA,EL ORO,-3.6833333333333336,-79.53333333333333
GULAC,CAñAR,-2.6333333333333333,-79.11666666666666
GULAG,AZUAY,-2.8333333333333335,-79.1
GULAG CHICO,AZUAY,-2.9166666666666665,-78.75
GULAG GRANDE,AZUAY,-2.9166666666666665,-78.75
GULALAG,CHIMBORAZO,-1.7666666666666666,-78.7
GULIANPUCARA,AZUAY,-3.2,-79.13333333333334
GULLIAN-DELEG,CAñAR,-2.5166666666666666,-79.06666666666666
GULLIANCAY,CAñAR,-2.783333333333333,-78.88333333333334
GUM,CAñAR,-2.6333333333333333,-78.66666666666667
GUN,CAñAR,-2.466666666666667,-78.98333333333333
GUN CHICO,CAñAR,-2.5166666666666666,-79.03333333333333
GUN GRANDE,CAñAR,-2.533333333333333,-79.06666666666666
GUNCAY,AZUAY,-2.9166666666666665,-78.96666666666667
GURGUR,AZUAY,-2.9333333333333336,-79.38333333333334
GUSHAGUINA,EL ORO,-3.7,-79.58333333333333
GUUCACOCHA,LOJA,-4.233333333333333,-80.21666666666667
GUZHO,AZUAY,-2.9333333333333336,-79.05
HABANA,LOS RíOS,-1.6166666666666667,-79.75
HABAS,AZUAY,-2.95,-79.36666666666666
HABASPAMBA,AZUAY,-2.8833333333333333,-78.85
HACHA,SUCUMBIOS,-0.03333333333333333,-75.53333333333333
HACHA,MANABí,-1.4666666666666668,-80.03333333333333
HACHA,GUAYAS,-1.7166666666666668,-79.86666666666666
HACIENDA ABRIL,AZUAY,-3.05,-79.05
HACIENDA ACHIRAL,LOJA,-4.4,-79.8
HACIENDA AGATO,PICHINCHA,-0.08333333333333333,-78.36666666666666
HACIENDA AGUALONGO,IMBABURA,0.2833333333333333,-78.21666666666667
HACIENDA AGUALONGUITO,IMBABURA,0.3,-78.21666666666667
HACIENDA AGUAMASA,COTOPAXI,-1.0833333333333333,-78.71666666666667
HACIENDA AICHAPICHE,PICHINCHA,-0.48333333333333334,-78.58333333333333
HACIENDA AINCHE,CHIMBORAZO,-1.6666666666666665,-78.56666666666666
HACIENDA AJIGUAL,GUAYAS,-1.55,-79.88333333333334
HACIENDA ALABADO,CHIMBORAZO,-1.75,-78.73333333333333
HACIENDA ALAGACHE,PICHINCHA,-0.15,-78.31666666666666
HACIENDA ALAMBI,PICHINCHA,-0.06666666666666667,-78.6
HACIENDA ALBAN,PICHINCHA,-0.16666666666666666,-78.38333333333334
HACIENDA ALCHIPICHI,PICHINCHA,0.05,-78.4
HACIENDA ALEGRIA,PICHINCHA,0.05,-78.16666666666667
HACIENDA ALGARROBERA,LOJA,-4.033333333333333,-79.4
HACIENDA ALICIA,GUAYAS,-1.0333333333333334,-79.6
HACIENDA ALINA,GUAYAS,-2.183333333333333,-79.825
HACIENDA ALMENDRAL,LOJA,-4.083333333333333,-79.8
HACIENDA ALOBUELA,PICHINCHA,0.13333333333333333,-78.4
HACIENDA ALOBUELA,IMBABURA,0.38333333333333336,-78.2
HACIENDA ALOR,CARCHI,0.45,-77.9
HACIENDA ALPAMALA DE TORO,COTOPAXI,-1.05,-78.66666666666667
HACIENDA ALPAMALA DE VELASCO,COTOPAXI,-1.05,-78.66666666666667
HACIENDA ALTAMIRANO,CARCHI,0.6,-77.7
HACIENDA ALVAREZ,EL ORO,-3.283333333333333,-79.93333333333334
HACIENDA ALVAREZ,PICHINCHA,-0.3,-78.56666666666666
HACIENDA ALVAREZ,PICHINCHA,-0.5166666666666667,-78.58333333333333
HACIENDA ALVAREZ,PICHINCHA,-0.55,-78.58333333333333
HACIENDA AMABLE MARIA,LOJA,-3.95,-79.21666666666667
HACIENDA AMANTA,CAñAR,-2.6,-78.81666666666666
HACIENDA AMBOASI,PICHINCHA,0.016666666666666666,-78.53333333333333
HACIENDA AMBUELA,PICHINCHA,0.11666666666666667,-78.4
HACIENDA AMERICA,GUAYAS,-0.9,-79.65
HACIENDA AMULA,CHIMBORAZO,-1.7,-78.73333333333333
HACIENDA ANABURO,IMBABURA,0.43333333333333335,-78.23333333333333
HACIENDA ANAFO,IMBABURA,0.35,-78.2
HACIENDA ANAGUMBA,PICHINCHA,0.2,-78.4
HACIENDA ANCHOLA,PICHINCHA,0.03333333333333333,-78.11666666666666
HACIENDA ANDAHUALO,TUNGURAHUA,-1.0833333333333333,-78.51666666666667
HACIENDA ANGELA MARIA NUMERO DOS,GUAYAS,-1.4,-79.93333333333334
HACIENDA ANGELINA,CARCHI,0.4666666666666667,-77.9
HACIENDA ANGLA,IMBABURA,0.2,-78.13333333333334
HACIENDA ARAUJO,PICHINCHA,-0.5,-78.56666666666666
HACIENDA ARCADIA,PICHINCHA,-0.3,-78.53333333333333
HACIENDA ARDANZA,LOJA,-4.283333333333333,-79.58333333333333
HACIENDA ARGELIA,PICHINCHA,-0.26666666666666666,-78.53333333333333
HACIENDA ARMENIA,PICHINCHA,-0.2833333333333333,-78.46666666666667
HACIENDA ARTEAGA,TUNGURAHUA,-1.0666666666666667,-78.55
HACIENDA ASACTUS,CHIMBORAZO,-1.7166666666666668,-78.58333333333333
HACIENDA ASPUR,PICHINCHA,-0.35,-78.5
HACIENDA ASTUDILLO,AZUAY,-3.0833333333333335,-79.01666666666667
HACIENDA ASUNCION,GUAYAS,-2.9166666666666665,-79.8
HACIENDA ATAHUALPA,COTOPAXI,-0.95,-78.6
HACIENDA ATALPAMBA,PICHINCHA,-0.08333333333333333,-78.31666666666666
HACIENDA ATAPULO,COTOPAXI,-0.8666666666666667,-78.75
HACIENDA ATOCHA,COTOPAXI,-1.0666666666666667,-78.71666666666667
HACIENDA AUQUICHICO,PICHINCHA,-0.21666666666666667,-78.43333333333334
HACIENDA AUQUIGRANDE,PICHINCHA,-0.21666666666666667,-78.45
HACIENDA AURORA,GUAYAS,-1.6166666666666667,-79.98333333333333
HACIENDA AVELINA,COTOPAXI,-0.8,-78.63333333333334
HACIENDA AYAHUAYCU,CAñAR,-2.55,-78.95
HACIENDA AYALAN,GUAYAS,-2.6166666666666667,-80.28333333333333
HACIENDA AYAURCU,PICHINCHA,-0.43333333333333335,-78.56666666666666
HACIENDA AYCALLATE,TUNGURAHUA,-1.1333333333333333,-78.55
HACIENDA AYURCU,PICHINCHA,-0.43333333333333335,-78.56666666666666
HACIENDA AYURCU DE PENA,PICHINCHA,-0.43333333333333335,-78.55
HACIENDA AZAYA,IMBABURA,0.36666666666666664,-78.11666666666666
HACIENDA BALBINA,PICHINCHA,-0.35,-78.48333333333333
HACIENDA BALCASHI,CHIMBORAZO,-1.7,-78.56666666666666
HACIENDA BALSAPAMBA,AZUAY,-3.216666666666667,-79.26666666666667
HACIENDA BALSAYAN,CHIMBORAZO,-1.6,-78.68333333333334
HACIENDA BALVINA,PICHINCHA,-0.3,-78.55
HACIENDA BARBERIS,TUNGURAHUA,-1.1666666666666667,-78.58333333333333
HACIENDA BARRANCAS,COTOPAXI,-0.8,-78.53333333333333
HACIENDA BARROTIETA,PICHINCHA,-0.3,-78.36666666666666
HACIENDA BATAN GRANDE,PICHINCHA,-0.18333333333333332,-78.48333333333333
HACIENDA BELLA,GUAYAS,-1.6166666666666667,-79.98333333333333
HACIENDA BELLA ESPERANZA,GUAYAS,-2.5833333333333335,-80.4
HACIENDA BELLA MARIA,LOJA,-4.166666666666667,-79.66666666666667
HACIENDA BELLA VISTA,COTOPAXI,-1.05,-78.55
HACIENDA BELLAVISTA,PICHINCHA,-0.06666666666666667,-78.41666666666667
HACIENDA BELLAVISTA,COTOPAXI,-0.8833333333333333,-78.6
HACIENDA BELLAVISTA,LOJA,-3.533333333333333,-79.46666666666667
HACIENDA BELLAVISTA,PICHINCHA,-0.38333333333333336,-78.53333333333333
HACIENDA BELLAVISTA,PICHINCHA,-0.11666666666666667,-78.5
HACIENDA BELLAVISTA,PICHINCHA,-0.18333333333333332,-78.46666666666667
HACIENDA BOCA DE PUCA,GUAYAS,-1.4166666666666667,-79.95
HACIENDA BOHIO,AZUAY,-3.05,-79.05
HACIENDA BOLASPAMBA,LOJA,-4.183333333333334,-80.43333333333334
HACIENDA BOLICHE,COTOPAXI,-0.7166666666666667,-78.6
HACIENDA BOLIVAR,AZUAY,-2.6166666666666667,-79.35
HACIENDA BOLIVIA,PICHINCHA,-0.35,-78.43333333333334
HACIENDA BRAMADEROS,LOJA,-4.1,-79.81666666666666
HACIENDA BUENAVENTURA,COTOPAXI,-0.7833333333333333,-78.71666666666667
HACIENDA BUENAVENTURA,GUAYAS,-1.4666666666666668,-80.1
HACIENDA BUENAVISTA,GUAYAS,-3.033333333333333,-79.81666666666666
HACIENDA BUENOS AIRES,AZUAY,-2.55,-79.46666666666667
HACIENDA BURRAS,IMBABURA,0.6166666666666667,-78.13333333333334
HACIENDA CABALLO POTRERO,AZUAY,-3.183333333333333,-79.5
HACIENDA CABUYAL,CARCHI,0.5833333333333334,-78.06666666666666
HACIENDA CACERES,GUAYAS,-2.2,-80.21666666666667
HACIENDA CACHICORRAL,CAñAR,-2.6333333333333333,-78.7
HACIENDA CACHIPAMBA,COTOPAXI,-0.85,-78.66666666666667
HACIENDA CACHIPAMBI,CAñAR,-2.5833333333333335,-78.93333333333334
HACIENDA CACHO DE HOSPITAL,IMBABURA,0.2833333333333333,-78.1
HACIENDA CACHUQUI ALARCON,PICHINCHA,-0.06666666666666667,-78.51666666666667
HACIENDA CACHUQUI MONCAYO,PICHINCHA,-0.08333333333333333,-78.51666666666667
HACIENDA CACHUQUI VELASCO,PICHINCHA,-0.05,-78.51666666666667
HACIENDA CAICEDO,PICHINCHA,-0.16666666666666666,-78.5
HACIENDA CAJAS,PICHINCHA,-0.13333333333333333,-78.18333333333334
HACIENDA CALDERA,CARCHI,0.43333333333333335,-77.93333333333334
HACIENDA CALHUA,TUNGURAHUA,-1.1166666666666667,-78.63333333333334
HACIENDA CALLO MANCHENO,COTOPAXI,-0.75,-78.6
HACIENDA CALZADO,PICHINCHA,-0.25,-78.51666666666667
HACIENDA CANANVALLE,PICHINCHA,0.03333333333333333,-78.18333333333334
HACIENDA CANANVALLE,IMBABURA,0.35,-78.13333333333334
HACIENDA CANCAN,AZUAY,-2.8833333333333333,-79.25
HACIENDA CANDELARIA,PICHINCHA,-0.05,-78.15
HACIENDA CANGONAMA CHICO,LOJA,-4.3,-79.93333333333334
HACIENDA CAPELO,PICHINCHA,-0.31666666666666665,-78.46666666666667
HACIENDA CAPRICHO,CAñAR,-2.35,-79.4
HACIENDA CAPULI,PICHINCHA,-0.06666666666666667,-78.36666666666666
HACIENDA CAPULI,CARCHI,-0.5666666666666667,-77.81666666666666
HACIENDA CARAPALE,LOJA,-3.533333333333333,-79.33333333333333
HACIENDA CARBON,TUNGURAHUA,-1.15,-78.51666666666667
HACIENDA CARCELEN,PICHINCHA,-0.016666666666666666,-78.43333333333334
HACIENDA CARCELEN,PICHINCHA,-0.1,-78.48333333333333
HACIENDA CARMEN,PICHINCHA,-0.2833333333333333,-78.55
HACIENDA CAROLINA,PICHINCHA,-0.18333333333333332,-78.48333333333333
HACIENDA CAROLINA,GUAYAS,-1.0333333333333334,-79.56666666666666
HACIENDA CARPATOS,AZUAY,-3.1166666666666667,-79.03333333333333
HACIENDA CARPUELA,IMBABURA,0.43333333333333335,-77.98333333333333
HACIENDA CARRERA,PICHINCHA,-0.05,-78.15
HACIENDA CARRETAS,PICHINCHA,-0.1,-78.46666666666667
HACIENDA CARRILLO,COTOPAXI,-1.0833333333333333,-78.66666666666667
HACIENDA CARRION,PICHINCHA,-0.25,-78.56666666666666
HACIENDA CARRIONA,PICHINCHA,-0.3333333333333333,-78.45
HACIENDA CARRIZAL,LOJA,-4.483333333333333,-79.76666666666667
HACIENDA CARTAGENA,AZUAY,-3.4,-79.2
HACIENDA CASA REDONDA,CHIMBORAZO,-1.6,-78.75
HACIENDA CASAHUAYCU,CHIMBORAZO,-1.6666666666666665,-78.58333333333333
HACIENDA CASANGA,LOJA,-4.016666666666667,-79.75
HACIENDA CASATEJA,CARCHI,0.6166666666666667,-78.0
HACIENDA CASHA,TUNGURAHUA,-1.1333333333333333,-78.51666666666667
HACIENDA CASIGANDA,PICHINCHA,-0.4,-78.53333333333333
HACIENDA CASPIGUASI,PICHINCHA,0.016666666666666666,-78.48333333333333
HACIENDA CATAHUANGO,PICHINCHA,-0.36666666666666664,-78.51666666666667
HACIENDA CATARAMA,CARCHI,0.6666666666666666,-78.08333333333333
HACIENDA CATAVINA,AZUAY,-3.25,-79.26666666666667
HACIENDA CAYAGAL,PICHINCHA,0.06666666666666667,-78.36666666666666
HACIENDA CEBADAS,CAñAR,-2.5,-78.78333333333333
HACIENDA CEIBILLO,EL ORO,-3.5166666666666666,-80.21666666666667
HACIENDA CELESTINA,GUAYAS,-2.0833333333333335,-79.4
HACIENDA CENTENO,AZUAY,-3.05,-79.06666666666666
HACIENDA CEUCEDA,GUAYAS,-2.216666666666667,-80.1
HACIENDA CEVALLOS,PICHINCHA,-0.2833333333333333,-78.58333333333333
HACIENDA CHABAYAN,CARCHI,0.6333333333333333,-77.91666666666667
HACIENDA CHACAYUCU,GUAYAS,-2.65,-79.65
HACIENDA CHACHABAN,CAñAR,-2.55,-78.93333333333334
HACIENDA CHAHUAR,CAñAR,-2.5666666666666664,-78.91666666666667
HACIENDA CHAHUARPUNGO,PICHINCHA,0.016666666666666666,-78.13333333333334
HACIENDA CHALANGA,LOJA,-4.266666666666667,-79.38333333333334
HACIENDA CHALUA,COTOPAXI,-0.8166666666666667,-78.73333333333333
HACIENDA CHAMANAL,CARCHI,-0.6333333333333333,-78.11666666666666
HACIENDA CHAMBAPONGO,COTOPAXI,-1.05,-78.51666666666667
HACIENDA CHAMBELLAN,LOJA,-4.033333333333333,-79.46666666666667
HACIENDA CHANCHALO,COTOPAXI,-1.0333333333333334,-78.51666666666667
HACIENDA CHANGALA,PICHINCHA,0.05,-78.15
HACIENDA CHANIN,CAñAR,-2.6833333333333336,-78.71666666666667
HACIENDA CHANTAG,PICHINCHA,-0.21666666666666667,-78.33333333333333
HACIENDA CHAQUIBAMBA,PICHINCHA,-0.03333333333333333,-78.3
HACIENDA CHARLA,PICHINCHA,0.11666666666666667,-78.41666666666667
HACIENDA CHASINATA,TUNGURAHUA,-1.2,-78.58333333333333
HACIENDA CHAUPI,COTOPAXI,-0.8333333333333334,-78.88333333333334
HACIENDA CHAUPI,PICHINCHA,-0.15,-78.36666666666666
HACIENDA CHAUPI,TUNGURAHUA,-1.0833333333333333,-78.51666666666667
HACIENDA CHAUPI,COTOPAXI,-0.95,-78.75
HACIENDA CHAUPI,COTOPAXI,-1.1,-78.65
HACIENDA CHAUPI,TUNGURAHUA,-1.1666666666666667,-78.61666666666666
HACIENDA CHAUPI,TUNGURAHUA,-1.1333333333333333,-78.51666666666667
HACIENDA CHAUPI,PICHINCHA,-0.18333333333333332,-78.51666666666667
HACIENDA CHAUPI,PICHINCHA,-0.38333333333333336,-78.43333333333334
HACIENDA CHAUPI GUARANGUI,IMBABURA,0.36666666666666664,-78.01666666666667
HACIENDA CHAYASAPA,LOJA,-3.533333333333333,-79.28333333333333
HACIENDA CHECA,PICHINCHA,-0.2833333333333333,-78.58333333333333
HACIENDA CHIBIGA,PICHINCHA,0.08333333333333333,-78.41666666666667
HACIENDA CHIBUNGA,CHIMBORAZO,-1.6833333333333333,-78.66666666666667
HACIENDA CHICHACA,LOJA,-3.9166666666666665,-79.33333333333333
HACIENDA CHICHAVO,IMBABURA,0.26666666666666666,-78.23333333333333
HACIENDA CHICHE OBRAJE,PICHINCHA,-0.2,-78.36666666666666
HACIENDA CHICHE TOBAR,PICHINCHA,-0.2,-78.36666666666666
HACIENDA CHICHE VITERI,PICHINCHA,-0.18333333333333332,-78.36666666666666
HACIENDA CHICHIPATA,PICHINCHA,-0.18333333333333332,-78.38333333333334
HACIENDA CHIGTI,AZUAY,-2.7666666666666666,-78.73333333333333
HACIENDA CHIHUARAN,CARCHI,0.8333333333333334,-77.75
HACIENDA CHILCAPAMBA,CARCHI,0.6166666666666667,-77.93333333333334
